[
  {
    "name": "Accident and Urgent Medical Centre",
    "facility_type": "hospital",
    "latitude": -41.3019041,
    "longitude": 174.7798775,
    "osm_id": 281145522,
    "source": "osm"
  },
  {
    "name": "Paramount Medical Center",
    "facility_type": "gp",
    "latitude": -35.6830569,
    "longitude": 174.3218942,
    "osm_id": 338168720,
    "source": "osm"
  },
  {
    "name": "Amberley Medical Centre",
    "facility_type": "gp",
    "latitude": -43.1546476,
    "longitude": 172.7331175,
    "osm_id": 385619570,
    "source": "osm"
  },
  {
    "name": "Whitby Doctors",
    "facility_type": "gp",
    "latitude": -41.1170445,
    "longitude": 174.892939,
    "osm_id": 482915687,
    "source": "osm"
  },
  {
    "name": "Pae tu Mokai Featherston Medical",
    "facility_type": "gp",
    "latitude": -41.1163121,
    "longitude": 175.3239964,
    "osm_id": 518149774,
    "source": "osm"
  },
  {
    "name": "The Radiology Group",
    "facility_type": "gp",
    "latitude": -36.8809568,
    "longitude": 174.6379961,
    "osm_id": 579403998,
    "source": "osm"
  },
  {
    "name": "Ngaio Medical Centre",
    "facility_type": "gp",
    "latitude": -41.2473979,
    "longitude": 174.7748244,
    "osm_id": 663225146,
    "source": "osm"
  },
  {
    "name": "Epsom Anaesthetic Group",
    "facility_type": "gp",
    "latitude": -36.8735414,
    "longitude": 174.7828047,
    "osm_id": 664332173,
    "source": "osm"
  },
  {
    "name": "Lister Court",
    "facility_type": "gp",
    "latitude": -41.5174225,
    "longitude": 173.9583886,
    "osm_id": 664387426,
    "source": "osm"
  },
  {
    "name": "Kaipara Medical Centre",
    "facility_type": "gp",
    "latitude": -36.6756387,
    "longitude": 174.4512414,
    "osm_id": 745322491,
    "source": "osm"
  },
  {
    "name": "Westmere Medical Centre",
    "facility_type": "gp",
    "latitude": -36.8548317,
    "longitude": 174.7188872,
    "osm_id": 832543474,
    "source": "osm"
  },
  {
    "name": "Medical Centre",
    "facility_type": "hospital",
    "latitude": -36.2431922,
    "longitude": 175.4671225,
    "osm_id": 843479012,
    "source": "osm"
  },
  {
    "name": "White Cross Accident and and Medical Clinic",
    "facility_type": "gp",
    "latitude": -36.8645047,
    "longitude": 174.6302149,
    "osm_id": 845770351,
    "source": "osm"
  },
  {
    "name": "White Cross St Lukes",
    "facility_type": "gp",
    "latitude": -36.881884,
    "longitude": 174.7314121,
    "osm_id": 847664419,
    "source": "osm"
  },
  {
    "name": "Westgate Medical Centre",
    "facility_type": "gp",
    "latitude": -36.8205526,
    "longitude": 174.6143938,
    "osm_id": 886173720,
    "source": "osm"
  },
  {
    "name": "Wai Health",
    "facility_type": "gp",
    "latitude": -36.8780176,
    "longitude": 174.6327274,
    "osm_id": 900405504,
    "source": "osm"
  },
  {
    "name": "Osteopathic Clinic",
    "facility_type": "gp",
    "latitude": -36.9534698,
    "longitude": 174.4733143,
    "osm_id": 926022691,
    "source": "osm"
  },
  {
    "name": "Henderson Medical Centre",
    "facility_type": "gp",
    "latitude": -36.8811884,
    "longitude": 174.6377386,
    "osm_id": 946127310,
    "source": "osm"
  },
  {
    "name": "Epsom Medical Centre",
    "facility_type": "gp",
    "latitude": -36.8796482,
    "longitude": 174.782961,
    "osm_id": 948959799,
    "source": "osm"
  },
  {
    "name": "Avondale Medical Centre",
    "facility_type": "gp",
    "latitude": -36.8983317,
    "longitude": 174.698877,
    "osm_id": 948963679,
    "source": "osm"
  },
  {
    "name": "North Harbour Medical Centre",
    "facility_type": "gp",
    "latitude": -36.7464541,
    "longitude": 174.7389452,
    "osm_id": 955769421,
    "source": "osm"
  },
  {
    "name": "Cairnhill Health Centre",
    "facility_type": "gp",
    "latitude": -36.8729314,
    "longitude": 174.7685218,
    "osm_id": 959750062,
    "source": "osm"
  },
  {
    "name": "Unknown",
    "facility_type": "gp",
    "latitude": -36.6377588,
    "longitude": 174.7472407,
    "osm_id": 961406641,
    "source": "osm"
  },
  {
    "name": "Waiuku Health Plus",
    "facility_type": "hospital",
    "latitude": -37.2525376,
    "longitude": 174.7256509,
    "osm_id": 966611096,
    "source": "osm"
  },
  {
    "name": "Ratanui Medical Centre",
    "facility_type": "gp",
    "latitude": -36.8688392,
    "longitude": 174.6289614,
    "osm_id": 976336667,
    "source": "osm"
  },
  {
    "name": "Orewa Medical Centre",
    "facility_type": "gp",
    "latitude": -36.5874293,
    "longitude": 174.6961322,
    "osm_id": 983132133,
    "source": "osm"
  },
  {
    "name": "Kawau Bay Health",
    "facility_type": "gp",
    "latitude": -36.399622,
    "longitude": 174.6661213,
    "osm_id": 986304054,
    "source": "osm"
  },
  {
    "name": "Hunters Corner Medical Centre",
    "facility_type": "gp",
    "latitude": -36.9701187,
    "longitude": 174.8619524,
    "osm_id": 1021421666,
    "source": "osm"
  },
  {
    "name": "Mount Wellington Medical Clinic",
    "facility_type": "gp",
    "latitude": -36.8966151,
    "longitude": 174.8310319,
    "osm_id": 1034075513,
    "source": "osm"
  },
  {
    "name": "Tui Medical Centre",
    "facility_type": "gp",
    "latitude": -37.7292665,
    "longitude": 175.2746593,
    "osm_id": 1060542247,
    "source": "osm"
  },
  {
    "name": "Local Doctors Browns Road",
    "facility_type": "gp",
    "latitude": -37.0178047,
    "longitude": 174.8632442,
    "osm_id": 1061074817,
    "source": "osm"
  },
  {
    "name": "Clendon Family Health Centre",
    "facility_type": "gp",
    "latitude": -37.0312474,
    "longitude": 174.8676679,
    "osm_id": 1068492054,
    "source": "osm"
  },
  {
    "name": "Papakura Medical Clinic",
    "facility_type": "gp",
    "latitude": -37.0570042,
    "longitude": 174.9394021,
    "osm_id": 1071662651,
    "source": "osm"
  },
  {
    "name": "Surgery",
    "facility_type": "gp",
    "latitude": -37.0616527,
    "longitude": 174.9395321,
    "osm_id": 1071662784,
    "source": "osm"
  },
  {
    "name": "Rosehill Christian Medical Centre",
    "facility_type": "gp",
    "latitude": -37.0797745,
    "longitude": 174.9370648,
    "osm_id": 1071688599,
    "source": "osm"
  },
  {
    "name": "Drury Lane Surgery",
    "facility_type": "gp",
    "latitude": -37.1009621,
    "longitude": 174.9509496,
    "osm_id": 1084158712,
    "source": "osm"
  },
  {
    "name": "Drury  Surgery",
    "facility_type": "gp",
    "latitude": -37.0982239,
    "longitude": 174.9486951,
    "osm_id": 1084173653,
    "source": "osm"
  },
  {
    "name": "Huntly East Medical Care",
    "facility_type": "gp",
    "latitude": -37.5606372,
    "longitude": 175.1588367,
    "osm_id": 1084641217,
    "source": "osm"
  },
  {
    "name": "Family Health Doctors",
    "facility_type": "gp",
    "latitude": -37.6674763,
    "longitude": 175.1503916,
    "osm_id": 1084971032,
    "source": "osm"
  },
  {
    "name": "Grey Lynn Medical Centre",
    "facility_type": "gp",
    "latitude": -36.864858,
    "longitude": 174.7377134,
    "osm_id": 1097160915,
    "source": "osm"
  },
  {
    "name": "Worldwise Health Vaccination Centre",
    "facility_type": "gp",
    "latitude": -36.8717965,
    "longitude": 174.780211,
    "osm_id": 1105901018,
    "source": "osm"
  },
  {
    "name": "Auckland Family Medical Centre",
    "facility_type": "gp",
    "latitude": -36.8729088,
    "longitude": 174.7816193,
    "osm_id": 1105901044,
    "source": "osm"
  },
  {
    "name": "Birthright",
    "facility_type": "hospital",
    "latitude": -36.8733295,
    "longitude": 174.7826042,
    "osm_id": 1105901054,
    "source": "osm"
  },
  {
    "name": "One Health Medical Centre",
    "facility_type": "gp",
    "latitude": -36.8740124,
    "longitude": 174.7837123,
    "osm_id": 1105901064,
    "source": "osm"
  },
  {
    "name": "Balmoral Medical Centre",
    "facility_type": "gp",
    "latitude": -36.890127,
    "longitude": 174.7461584,
    "osm_id": 1217216952,
    "source": "osm"
  },
  {
    "name": "Forensic Community Team",
    "facility_type": "hospital",
    "latitude": -43.5486781,
    "longitude": 172.5893342,
    "osm_id": 1225250003,
    "source": "osm"
  },
  {
    "name": "Omahu Clinic",
    "facility_type": "gp",
    "latitude": -39.6287415,
    "longitude": 176.8288839,
    "osm_id": 1262003843,
    "source": "osm"
  },
  {
    "name": "Te Mata Clinic",
    "facility_type": "gp",
    "latitude": -39.6658947,
    "longitude": 176.8876157,
    "osm_id": 1263268831,
    "source": "osm"
  },
  {
    "name": "Botany Terrace Medical Centre",
    "facility_type": "gp",
    "latitude": -36.9249967,
    "longitude": 174.9125877,
    "osm_id": 1278851290,
    "source": "osm"
  },
  {
    "name": "Eastcare Accident and Medical",
    "facility_type": "gp",
    "latitude": -36.9224874,
    "longitude": 174.9135362,
    "osm_id": 1278851303,
    "source": "osm"
  },
  {
    "name": "Nile Road Medical Centre",
    "facility_type": "hospital",
    "latitude": -36.7790864,
    "longitude": 174.7503478,
    "osm_id": 1302906872,
    "source": "osm"
  },
  {
    "name": "City Med",
    "facility_type": "gp",
    "latitude": -36.8450483,
    "longitude": 174.7651864,
    "osm_id": 1308888216,
    "source": "osm"
  },
  {
    "name": "Titirangi Medical Centre",
    "facility_type": "gp",
    "latitude": -36.9382177,
    "longitude": 174.6582698,
    "osm_id": 1314957302,
    "source": "osm"
  },
  {
    "name": "Paeroa Medical Centre",
    "facility_type": "gp",
    "latitude": -37.3818478,
    "longitude": 175.6708335,
    "osm_id": 1446104737,
    "source": "osm"
  },
  {
    "name": "Hydro Therapy Centre",
    "facility_type": "gp",
    "latitude": -37.5188157,
    "longitude": 175.7017629,
    "osm_id": 1446850465,
    "source": "osm"
  },
  {
    "name": "Etu Pasifika Health Centre",
    "facility_type": "gp",
    "latitude": -36.9298682,
    "longitude": 174.841966,
    "osm_id": 1448680924,
    "source": "osm"
  },
  {
    "name": "Tunohopu Health Centre",
    "facility_type": "gp",
    "latitude": -38.1278234,
    "longitude": 176.2455469,
    "osm_id": 1503616482,
    "source": "osm"
  },
  {
    "name": "Waitara Health Centre",
    "facility_type": "gp",
    "latitude": -39.0019126,
    "longitude": 174.2354921,
    "osm_id": 1549405024,
    "source": "osm"
  },
  {
    "name": "Waihi Beach Medical Centre",
    "facility_type": "gp",
    "latitude": -37.4111724,
    "longitude": 175.9402358,
    "osm_id": 1564519526,
    "source": "osm"
  },
  {
    "name": "Medical Centre",
    "facility_type": "gp",
    "latitude": -37.633477,
    "longitude": 176.0448359,
    "osm_id": 1564605417,
    "source": "osm"
  },
  {
    "name": "Te Kuiti Health Centre",
    "facility_type": "gp",
    "latitude": -38.335145,
    "longitude": 175.1671201,
    "osm_id": 1577832681,
    "source": "osm"
  },
  {
    "name": "Mangakino Health Centre",
    "facility_type": "gp",
    "latitude": -38.3704978,
    "longitude": 175.7751028,
    "osm_id": 1577895367,
    "source": "osm"
  },
  {
    "name": "Doctors Surgery",
    "facility_type": "gp",
    "latitude": -38.9876273,
    "longitude": 175.8077355,
    "osm_id": 1578823034,
    "source": "osm"
  },
  {
    "name": "Ruapehu Health Ltd",
    "facility_type": "gp",
    "latitude": -39.4271957,
    "longitude": 175.2793237,
    "osm_id": 1578948604,
    "source": "osm"
  },
  {
    "name": "Waimarino Health Centre",
    "facility_type": "gp",
    "latitude": -39.4275214,
    "longitude": 175.2805503,
    "osm_id": 1578948637,
    "source": "osm"
  },
  {
    "name": "Community Health Centre",
    "facility_type": "gp",
    "latitude": -39.4141358,
    "longitude": 175.3920283,
    "osm_id": 1578991151,
    "source": "osm"
  },
  {
    "name": "Whakatohea Health Centre",
    "facility_type": "gp",
    "latitude": -38.0046897,
    "longitude": 177.2843503,
    "osm_id": 1612937652,
    "source": "osm"
  },
  {
    "name": "Kawerau Medical Centre",
    "facility_type": "gp",
    "latitude": -38.090305,
    "longitude": 176.7008921,
    "osm_id": 1614081183,
    "source": "osm"
  },
  {
    "name": "Central Hawkes Bay Health Centre",
    "facility_type": "gp",
    "latitude": -39.9947151,
    "longitude": 176.549366,
    "osm_id": 1621241390,
    "source": "osm"
  },
  {
    "name": "Flagstaff Medical Centre",
    "facility_type": "gp",
    "latitude": -37.7386995,
    "longitude": 175.2545393,
    "osm_id": 1661647014,
    "source": "osm"
  },
  {
    "name": "Stoke Medical Centre",
    "facility_type": "gp",
    "latitude": -41.3106225,
    "longitude": 173.2358533,
    "osm_id": 1709788514,
    "source": "osm"
  },
  {
    "name": "The Doctors",
    "facility_type": "gp",
    "latitude": -36.9124825,
    "longitude": 174.7280286,
    "osm_id": 1718639363,
    "source": "osm"
  },
  {
    "name": "Opotiki Health Centre",
    "facility_type": "hospital",
    "latitude": -38.0066514,
    "longitude": 177.2859784,
    "osm_id": 1731477981,
    "source": "osm"
  },
  {
    "name": "Manly Medical Centre",
    "facility_type": "gp",
    "latitude": -36.631283,
    "longitude": 174.7629622,
    "osm_id": 1734793268,
    "source": "osm"
  },
  {
    "name": "Manurewa Medical",
    "facility_type": "gp",
    "latitude": -37.020632,
    "longitude": 174.8950501,
    "osm_id": 1789715201,
    "source": "osm"
  },
  {
    "name": "Student Health",
    "facility_type": "gp",
    "latitude": -41.2884999,
    "longitude": 174.7695415,
    "osm_id": 1894167116,
    "source": "osm"
  },
  {
    "name": "The Doctors Waimauku",
    "facility_type": "gp",
    "latitude": -36.768186,
    "longitude": 174.49284,
    "osm_id": 1942202545,
    "source": "osm"
  },
  {
    "name": "Awanui Labs",
    "facility_type": "gp",
    "latitude": -36.8704423,
    "longitude": 174.7109729,
    "osm_id": 1973539550,
    "source": "osm"
  },
  {
    "name": "Kowhai Health Medical Centre",
    "facility_type": "gp",
    "latitude": -36.3994102,
    "longitude": 174.6657102,
    "osm_id": 1975719861,
    "source": "osm"
  },
  {
    "name": "Upper Harbour Medical Centre",
    "facility_type": "gp",
    "latitude": -36.7991674,
    "longitude": 174.6463644,
    "osm_id": 1996838217,
    "source": "osm"
  },
  {
    "name": "Bulls Medical Centre",
    "facility_type": "gp",
    "latitude": -40.1741118,
    "longitude": 175.3859926,
    "osm_id": 2101050669,
    "source": "osm"
  },
  {
    "name": "Whanganui Poly Clinic",
    "facility_type": "gp",
    "latitude": -39.930283,
    "longitude": 175.0496452,
    "osm_id": 2101160827,
    "source": "osm"
  },
  {
    "name": "Patea Health Centre",
    "facility_type": "gp",
    "latitude": -39.7554073,
    "longitude": 174.4730675,
    "osm_id": 2101198244,
    "source": "osm"
  },
  {
    "name": "Opunake Health Centre",
    "facility_type": "gp",
    "latitude": -39.4549954,
    "longitude": 173.8577822,
    "osm_id": 2101254165,
    "source": "osm"
  },
  {
    "name": "Plunket",
    "facility_type": "gp",
    "latitude": -36.8009339,
    "longitude": 174.7469687,
    "osm_id": 2108649783,
    "source": "osm"
  },
  {
    "name": "Northcote Point Doctors",
    "facility_type": "gp",
    "latitude": -36.810468,
    "longitude": 174.7417004,
    "osm_id": 2158628066,
    "source": "osm"
  },
  {
    "name": "Leeston Medical Centre",
    "facility_type": "hospital",
    "latitude": -43.7612697,
    "longitude": 172.2992923,
    "osm_id": 2172305323,
    "source": "osm"
  },
  {
    "name": "Harley Street Medical",
    "facility_type": "gp",
    "latitude": -41.2731102,
    "longitude": 173.2877338,
    "osm_id": 2375758095,
    "source": "osm"
  },
  {
    "name": "Unknown",
    "facility_type": "gp",
    "latitude": -41.2750848,
    "longitude": 173.2901214,
    "osm_id": 2383864093,
    "source": "osm"
  },
  {
    "name": "Medical Centre",
    "facility_type": "hospital",
    "latitude": -37.2746868,
    "longitude": 175.4956683,
    "osm_id": 2453640940,
    "source": "osm"
  },
  {
    "name": "Tui Medical",
    "facility_type": "gp",
    "latitude": -37.7617349,
    "longitude": 175.2870699,
    "osm_id": 2456752484,
    "source": "osm"
  },
  {
    "name": "The Ultrasound Clinic",
    "facility_type": "gp",
    "latitude": -37.7842173,
    "longitude": 175.2769283,
    "osm_id": 2494685279,
    "source": "osm"
  },
  {
    "name": "Anglesea Clinic Accident & Medical",
    "facility_type": "gp",
    "latitude": -37.7923632,
    "longitude": 175.2833056,
    "osm_id": 2499996987,
    "source": "osm"
  },
  {
    "name": "Hari Hari Health Centre",
    "facility_type": "gp",
    "latitude": -43.1498331,
    "longitude": 170.5586423,
    "osm_id": 2554544649,
    "source": "osm"
  },
  {
    "name": "St John first aid",
    "facility_type": "hospital",
    "latitude": -45.5434885,
    "longitude": 169.3141906,
    "osm_id": 2588672799,
    "source": "osm"
  },
  {
    "name": "Silverdale Medical and Surgical",
    "facility_type": "gp",
    "latitude": -36.6134149,
    "longitude": 174.6844114,
    "osm_id": 2596445267,
    "source": "osm"
  },
  {
    "name": "Pukekohe Family Healthcare",
    "facility_type": "gp",
    "latitude": -37.1870845,
    "longitude": 174.9221232,
    "osm_id": 2597873994,
    "source": "osm"
  },
  {
    "name": "New Zealand Blood Service Donor Centre",
    "facility_type": "gp",
    "latitude": -36.8817141,
    "longitude": 174.7837886,
    "osm_id": 2611965018,
    "source": "osm"
  },
  {
    "name": "Westland Medical Centre",
    "facility_type": "gp",
    "latitude": -42.7172945,
    "longitude": 170.9648505,
    "osm_id": 2660829615,
    "source": "osm"
  },
  {
    "name": "Cornwall Medical Centre",
    "facility_type": "gp",
    "latitude": -36.9115138,
    "longitude": 174.776179,
    "osm_id": 2692339072,
    "source": "osm"
  },
  {
    "name": "Queenspark Healthcare",
    "facility_type": "gp",
    "latitude": -43.4778368,
    "longitude": 172.6959984,
    "osm_id": 2699333021,
    "source": "osm"
  },
  {
    "name": "Hillcrest Medical Centre",
    "facility_type": "gp",
    "latitude": -37.7989534,
    "longitude": 175.316454,
    "osm_id": 2718605283,
    "source": "osm"
  },
  {
    "name": "Unknown",
    "facility_type": "gp",
    "latitude": -39.4708566,
    "longitude": 175.680364,
    "osm_id": 2728413793,
    "source": "osm"
  },
  {
    "name": "Belfast Medical Centre",
    "facility_type": "gp",
    "latitude": -43.44544,
    "longitude": 172.6332369,
    "osm_id": 2738838491,
    "source": "osm"
  },
  {
    "name": "Parklands Medical Centre",
    "facility_type": "gp",
    "latitude": -43.479875,
    "longitude": 172.6954482,
    "osm_id": 2738840088,
    "source": "osm"
  },
  {
    "name": "Travis Medical Centre",
    "facility_type": "gp",
    "latitude": -43.49478,
    "longitude": 172.7096824,
    "osm_id": 2738843888,
    "source": "osm"
  },
  {
    "name": "Manuka Medical Centre",
    "facility_type": "gp",
    "latitude": -43.4973203,
    "longitude": 172.6473939,
    "osm_id": 2740354101,
    "source": "osm"
  },
  {
    "name": "Greers Road Medical Centre",
    "facility_type": "gp",
    "latitude": -43.4985354,
    "longitude": 172.5863861,
    "osm_id": 2740470409,
    "source": "osm"
  },
  {
    "name": "Papanui Medical Centre",
    "facility_type": "gp",
    "latitude": -43.500314,
    "longitude": 172.6115319,
    "osm_id": 2740470411,
    "source": "osm"
  },
  {
    "name": "Shirley Medical Centre",
    "facility_type": "gp",
    "latitude": -43.5071052,
    "longitude": 172.6624175,
    "osm_id": 2740470412,
    "source": "osm"
  },
  {
    "name": "St Albans Medical Centre",
    "facility_type": "gp",
    "latitude": -43.509492,
    "longitude": 172.6304074,
    "osm_id": 2740470414,
    "source": "osm"
  },
  {
    "name": "North Avon Medical Centre",
    "facility_type": "gp",
    "latitude": -43.5179147,
    "longitude": 172.6539529,
    "osm_id": 2740547516,
    "source": "osm"
  },
  {
    "name": "Moorehouse Medical Centre",
    "facility_type": "gp",
    "latitude": -43.5409164,
    "longitude": 172.6397248,
    "osm_id": 2740645898,
    "source": "osm"
  },
  {
    "name": "Templeton Medical Centre",
    "facility_type": "gp",
    "latitude": -43.5533583,
    "longitude": 172.4730412,
    "osm_id": 2740645931,
    "source": "osm"
  },
  {
    "name": "Selwyn Street Medical Centre",
    "facility_type": "gp",
    "latitude": -43.5483066,
    "longitude": 172.6223295,
    "osm_id": 2740645938,
    "source": "osm"
  },
  {
    "name": "Barrington Medical Centre",
    "facility_type": "gp",
    "latitude": -43.5571085,
    "longitude": 172.6203783,
    "osm_id": 2740645947,
    "source": "osm"
  },
  {
    "name": "Ferrymead Medical Centre",
    "facility_type": "gp",
    "latitude": -43.5577126,
    "longitude": 172.7051465,
    "osm_id": 2740758624,
    "source": "osm"
  },
  {
    "name": "Mt Pleasant Medical Centre",
    "facility_type": "gp",
    "latitude": -43.5579141,
    "longitude": 172.7222201,
    "osm_id": 2740758628,
    "source": "osm"
  },
  {
    "name": "Cashmere Medical Practice",
    "facility_type": "gp",
    "latitude": -43.5669028,
    "longitude": 172.6293675,
    "osm_id": 2740758635,
    "source": "osm"
  },
  {
    "name": "The Hoon Hay Medical Centre",
    "facility_type": "gp",
    "latitude": -43.5659965,
    "longitude": 172.604175,
    "osm_id": 2740758638,
    "source": "osm"
  },
  {
    "name": "Halswell Medical Centre",
    "facility_type": "gp",
    "latitude": -43.5744256,
    "longitude": 172.5685192,
    "osm_id": 2740758640,
    "source": "osm"
  },
  {
    "name": "St George's Hospital",
    "facility_type": "hospital",
    "latitude": -43.510655,
    "longitude": 172.6184237,
    "osm_id": 2740957987,
    "source": "osm"
  },
  {
    "name": "Rosewood Rest Home & Hospital",
    "facility_type": "hospital",
    "latitude": -43.5253525,
    "longitude": 172.6806349,
    "osm_id": 2740957995,
    "source": "osm"
  },
  {
    "name": "Regional Forensic Psychiatric Service",
    "facility_type": "hospital",
    "latitude": -43.547097,
    "longitude": 172.5873827,
    "osm_id": 2741029672,
    "source": "osm"
  },
  {
    "name": "Te Whare Mauri Ora",
    "facility_type": "hospital",
    "latitude": -43.5468751,
    "longitude": 172.5896502,
    "osm_id": 2741029674,
    "source": "osm"
  },
  {
    "name": "Youth Specialty Services",
    "facility_type": "hospital",
    "latitude": -43.549189,
    "longitude": 172.5955491,
    "osm_id": 2741029676,
    "source": "osm"
  },
  {
    "name": "Cambridge Medical Centre",
    "facility_type": "gp",
    "latitude": -37.8937087,
    "longitude": 175.465784,
    "osm_id": 2771483173,
    "source": "osm"
  },
  {
    "name": "Urology Associates",
    "facility_type": "gp",
    "latitude": -43.5264417,
    "longitude": 172.6378242,
    "osm_id": 2789666999,
    "source": "osm"
  },
  {
    "name": "Eltham Health Centre",
    "facility_type": "gp",
    "latitude": -39.4314009,
    "longitude": 174.2995446,
    "osm_id": 2808237551,
    "source": "osm"
  },
  {
    "name": "Stratford Medical",
    "facility_type": "gp",
    "latitude": -39.3426871,
    "longitude": 174.2848747,
    "osm_id": 2808306576,
    "source": "osm"
  },
  {
    "name": "Rolleston Medical Centre",
    "facility_type": "gp",
    "latitude": -43.5945792,
    "longitude": 172.3753966,
    "osm_id": 2810317253,
    "source": "osm"
  },
  {
    "name": "Bream Bay Medical Centre",
    "facility_type": "gp",
    "latitude": -35.8745003,
    "longitude": 174.455888,
    "osm_id": 2896925642,
    "source": "osm"
  },
  {
    "name": "Onerahi Medical Centre",
    "facility_type": "gp",
    "latitude": -35.7550501,
    "longitude": 174.3680794,
    "osm_id": 2898892381,
    "source": "osm"
  },
  {
    "name": "Raumanga Medical Centre",
    "facility_type": "gp",
    "latitude": -35.7437898,
    "longitude": 174.3065247,
    "osm_id": 2898952221,
    "source": "osm"
  },
  {
    "name": "Hamilton Radiology - Rototuna Branch",
    "facility_type": "hospital",
    "latitude": -37.729418,
    "longitude": 175.274785,
    "osm_id": 2909911890,
    "source": "osm"
  },
  {
    "name": "Glenwood Sugery",
    "facility_type": "gp",
    "latitude": -44.3907122,
    "longitude": 171.2318711,
    "osm_id": 2928693801,
    "source": "osm"
  },
  {
    "name": "Dee St Medical Centre",
    "facility_type": "gp",
    "latitude": -44.3959096,
    "longitude": 171.2477581,
    "osm_id": 2928697356,
    "source": "osm"
  },
  {
    "name": "Hassall St Medical Centre",
    "facility_type": "gp",
    "latitude": -44.4043062,
    "longitude": 171.2425962,
    "osm_id": 2928697601,
    "source": "osm"
  },
  {
    "name": "Highfield Medical Centre",
    "facility_type": "gp",
    "latitude": -44.3931381,
    "longitude": 171.2233653,
    "osm_id": 2928698001,
    "source": "osm"
  },
  {
    "name": "Timaru Medical Centre",
    "facility_type": "gp",
    "latitude": -44.4052547,
    "longitude": 171.2420624,
    "osm_id": 2928698144,
    "source": "osm"
  },
  {
    "name": "Victoria St Medical Centre",
    "facility_type": "gp",
    "latitude": -44.401336,
    "longitude": 171.252869,
    "osm_id": 2928699032,
    "source": "osm"
  },
  {
    "name": "Institute of Sport Physiotherapy",
    "facility_type": "gp",
    "latitude": -36.923456,
    "longitude": 174.7836106,
    "osm_id": 2942674835,
    "source": "osm"
  },
  {
    "name": "Awanui Labs",
    "facility_type": "gp",
    "latitude": -36.923202,
    "longitude": 174.7837466,
    "osm_id": 2942674836,
    "source": "osm"
  },
  {
    "name": "Awanui Labs",
    "facility_type": "gp",
    "latitude": -36.9061211,
    "longitude": 174.7744165,
    "osm_id": 2976586280,
    "source": "osm"
  },
  {
    "name": "Avondale Medical Centre",
    "facility_type": "gp",
    "latitude": -36.8857544,
    "longitude": 174.6836206,
    "osm_id": 2993072473,
    "source": "osm"
  },
  {
    "name": "Meadowbank General Practice",
    "facility_type": "gp",
    "latitude": -36.8764677,
    "longitude": 174.8266958,
    "osm_id": 3038660856,
    "source": "osm"
  },
  {
    "name": "Meadowbank Medical Centre",
    "facility_type": "gp",
    "latitude": -36.8733234,
    "longitude": 174.8288259,
    "osm_id": 3038660857,
    "source": "osm"
  },
  {
    "name": "Peninsula Medical Centre",
    "facility_type": "gp",
    "latitude": -36.854653,
    "longitude": 174.6509075,
    "osm_id": 3049839237,
    "source": "osm"
  },
  {
    "name": "Su's Clinic of Traditional Chinese Medicine",
    "facility_type": "gp",
    "latitude": -37.7727592,
    "longitude": 175.2943506,
    "osm_id": 3062573713,
    "source": "osm"
  },
  {
    "name": "Valley Medical Centre",
    "facility_type": "gp",
    "latitude": -36.8924518,
    "longitude": 174.6207251,
    "osm_id": 3064870861,
    "source": "osm"
  },
  {
    "name": "Triton Hearing Clinic, St Albans",
    "facility_type": "gp",
    "latitude": -43.52058,
    "longitude": 172.6353016,
    "osm_id": 3077672814,
    "source": "osm"
  },
  {
    "name": "Ranui Medical Centre",
    "facility_type": "gp",
    "latitude": -36.8635956,
    "longitude": 174.6026597,
    "osm_id": 3099827194,
    "source": "osm"
  },
  {
    "name": "Swanson Medical Centre",
    "facility_type": "gp",
    "latitude": -36.866031,
    "longitude": 174.579314,
    "osm_id": 3099827200,
    "source": "osm"
  },
  {
    "name": "Lincoln Road Medical Centre",
    "facility_type": "gp",
    "latitude": -36.8647286,
    "longitude": 174.6301619,
    "osm_id": 3139667406,
    "source": "osm"
  },
  {
    "name": "West Harbour Medical Centre",
    "facility_type": "gp",
    "latitude": -36.82301,
    "longitude": 174.6240053,
    "osm_id": 3151754375,
    "source": "osm"
  },
  {
    "name": "Kawau Bay Health - doctors rooms",
    "facility_type": "gp",
    "latitude": -36.4242676,
    "longitude": 174.7274889,
    "osm_id": 3169797921,
    "source": "osm"
  },
  {
    "name": "The Airport Doctors",
    "facility_type": "gp",
    "latitude": -36.996202,
    "longitude": 174.7881099,
    "osm_id": 3200752170,
    "source": "osm"
  },
  {
    "name": "Elstree Avenue Family Doctors",
    "facility_type": "gp",
    "latitude": -36.8714819,
    "longitude": 174.8653279,
    "osm_id": 3212135798,
    "source": "osm"
  },
  {
    "name": "Doctors on Jervois",
    "facility_type": "gp",
    "latitude": -36.8459027,
    "longitude": 174.7413485,
    "osm_id": 3250457720,
    "source": "osm"
  },
  {
    "name": "Clevedon Road Medical Centre",
    "facility_type": "gp",
    "latitude": -37.0621554,
    "longitude": 174.9485668,
    "osm_id": 3256322938,
    "source": "osm"
  },
  {
    "name": "Birkdale Family Doctors",
    "facility_type": "gp",
    "latitude": -36.7996243,
    "longitude": 174.7024536,
    "osm_id": 3259548256,
    "source": "osm"
  },
  {
    "name": "Penrose Clinic",
    "facility_type": "gp",
    "latitude": -36.9103897,
    "longitude": 174.8168822,
    "osm_id": 3309252441,
    "source": "osm"
  },
  {
    "name": "Medical Centre",
    "facility_type": "gp",
    "latitude": -36.8649606,
    "longitude": 174.6995318,
    "osm_id": 3326608481,
    "source": "osm"
  },
  {
    "name": "Waiheke Medical Centre",
    "facility_type": "gp",
    "latitude": -36.7836515,
    "longitude": 175.0109825,
    "osm_id": 3335801630,
    "source": "osm"
  },
  {
    "name": "Ostend Medical Centre",
    "facility_type": "gp",
    "latitude": -36.7959162,
    "longitude": 175.0449484,
    "osm_id": 3335801633,
    "source": "osm"
  },
  {
    "name": "Casebrook Surgery",
    "facility_type": "gp",
    "latitude": -43.4732577,
    "longitude": 172.5942756,
    "osm_id": 3343416916,
    "source": "osm"
  },
  {
    "name": "Archers Road Medical Centre",
    "facility_type": "gp",
    "latitude": -36.7845331,
    "longitude": 174.7340616,
    "osm_id": 3365345501,
    "source": "osm"
  },
  {
    "name": "Glenfield Doctors",
    "facility_type": "gp",
    "latitude": -36.7826324,
    "longitude": 174.7301939,
    "osm_id": 3365345502,
    "source": "osm"
  },
  {
    "name": "River Radiology",
    "facility_type": "gp",
    "latitude": -37.7908316,
    "longitude": 175.2836536,
    "osm_id": 3372825093,
    "source": "osm"
  },
  {
    "name": "Merrilands Medical Centre",
    "facility_type": "hospital",
    "latitude": -39.0665278,
    "longitude": 174.1021232,
    "osm_id": 3377492262,
    "source": "osm"
  },
  {
    "name": "White Cross Accident and Medical",
    "facility_type": "gp",
    "latitude": -36.9425241,
    "longitude": 174.8407536,
    "osm_id": 3379403607,
    "source": "osm"
  },
  {
    "name": "Auckland Eye",
    "facility_type": "gp",
    "latitude": -36.8739802,
    "longitude": 174.7809756,
    "osm_id": 3388764401,
    "source": "osm"
  },
  {
    "name": "DW Family Doctors",
    "facility_type": "gp",
    "latitude": -36.9121425,
    "longitude": 174.8708587,
    "osm_id": 3412146098,
    "source": "osm"
  },
  {
    "name": "Eastside Family Doctor",
    "facility_type": "gp",
    "latitude": -36.9181508,
    "longitude": 174.8747203,
    "osm_id": 3412146100,
    "source": "osm"
  },
  {
    "name": "Family Healthcare Medical Centre",
    "facility_type": "gp",
    "latitude": -36.9000061,
    "longitude": 174.9088258,
    "osm_id": 3412146101,
    "source": "osm"
  },
  {
    "name": "Highland Park Medical Centre",
    "facility_type": "gp",
    "latitude": -36.8999217,
    "longitude": 174.9078411,
    "osm_id": 3412146104,
    "source": "osm"
  },
  {
    "name": "Te Rawhiti Community Mental Health Centre",
    "facility_type": "gp",
    "latitude": -36.8997261,
    "longitude": 174.9088395,
    "osm_id": 3412146111,
    "source": "osm"
  },
  {
    "name": "White Cross",
    "facility_type": "gp",
    "latitude": -36.7811081,
    "longitude": 174.7211378,
    "osm_id": 3431091031,
    "source": "osm"
  },
  {
    "name": "Baderdrive Doctors",
    "facility_type": "gp",
    "latitude": -36.9691039,
    "longitude": 174.7996347,
    "osm_id": 3436746940,
    "source": "osm"
  },
  {
    "name": "Family Doctors",
    "facility_type": "gp",
    "latitude": -36.9430119,
    "longitude": 174.7876981,
    "osm_id": 3436746944,
    "source": "osm"
  },
  {
    "name": "Wood Street Doctors and Pharmacy",
    "facility_type": "gp",
    "latitude": -37.0648371,
    "longitude": 174.9414877,
    "osm_id": 3438936698,
    "source": "osm"
  },
  {
    "name": "Seddon Medical",
    "facility_type": "gp",
    "latitude": -37.1986036,
    "longitude": 174.901555,
    "osm_id": 3439031973,
    "source": "osm"
  },
  {
    "name": "Surrey Medical Centre",
    "facility_type": "gp",
    "latitude": -36.8636774,
    "longitude": 174.7368104,
    "osm_id": 3450000415,
    "source": "osm"
  },
  {
    "name": "Hibiscus Coast Medical Centre",
    "facility_type": "gp",
    "latitude": -36.5868095,
    "longitude": 174.6933137,
    "osm_id": 3453817904,
    "source": "osm"
  },
  {
    "name": "Local Doctors Hillpark",
    "facility_type": "gp",
    "latitude": -37.0137867,
    "longitude": 174.9005722,
    "osm_id": 3464952300,
    "source": "osm"
  },
  {
    "name": "Papakura East Medical Centre",
    "facility_type": "gp",
    "latitude": -37.0585804,
    "longitude": 174.9530541,
    "osm_id": 3464952304,
    "source": "osm"
  },
  {
    "name": "Kowhai Clinic",
    "facility_type": "gp",
    "latitude": -36.7826487,
    "longitude": 174.7205296,
    "osm_id": 3483259236,
    "source": "osm"
  },
  {
    "name": "Coastcare",
    "facility_type": "gp",
    "latitude": -36.6065451,
    "longitude": 174.698812,
    "osm_id": 3494707503,
    "source": "osm"
  },
  {
    "name": "Balmoral Doctors and Health Centre",
    "facility_type": "gp",
    "latitude": -36.8844146,
    "longitude": 174.7485359,
    "osm_id": 3508008257,
    "source": "osm"
  },
  {
    "name": "IBOD",
    "facility_type": "gp",
    "latitude": -36.992753,
    "longitude": 175.0367695,
    "osm_id": 3577963843,
    "source": "osm"
  },
  {
    "name": "Mairangi Bay Medical Centre",
    "facility_type": "gp",
    "latitude": -36.7379622,
    "longitude": 174.7522045,
    "osm_id": 3593740868,
    "source": "osm"
  },
  {
    "name": "Sunset Road Family Doctors",
    "facility_type": "gp",
    "latitude": -36.7474356,
    "longitude": 174.7399969,
    "osm_id": 3593740874,
    "source": "osm"
  },
  {
    "name": "The Doctors",
    "facility_type": "gp",
    "latitude": -39.4939708,
    "longitude": 176.9149966,
    "osm_id": 3604271759,
    "source": "osm"
  },
  {
    "name": "Milford Family Medical Centre",
    "facility_type": "gp",
    "latitude": -36.7688543,
    "longitude": 174.7589903,
    "osm_id": 3610345632,
    "source": "osm"
  },
  {
    "name": "Surgery on Shakespeare",
    "facility_type": "gp",
    "latitude": -36.7770062,
    "longitude": 174.7583114,
    "osm_id": 3610345634,
    "source": "osm"
  },
  {
    "name": "Mercy Ascot Endoscopy North Shore",
    "facility_type": "gp",
    "latitude": -36.7873299,
    "longitude": 174.7578711,
    "osm_id": 3610458268,
    "source": "osm"
  },
  {
    "name": "Local Doctors",
    "facility_type": "gp",
    "latitude": -36.9699786,
    "longitude": 174.7853897,
    "osm_id": 3623030924,
    "source": "osm"
  },
  {
    "name": "Kolmar Road Medical Centre",
    "facility_type": "gp",
    "latitude": -36.9705266,
    "longitude": 174.8593307,
    "osm_id": 3647179828,
    "source": "osm"
  },
  {
    "name": "Papatoetoe Medical Centre",
    "facility_type": "gp",
    "latitude": -36.9796341,
    "longitude": 174.8556788,
    "osm_id": 3647179831,
    "source": "osm"
  },
  {
    "name": "East Tamaki Health Centre",
    "facility_type": "gp",
    "latitude": -37.0214941,
    "longitude": 174.8977038,
    "osm_id": 3658338979,
    "source": "osm"
  },
  {
    "name": "Manurewa Healthcare",
    "facility_type": "gp",
    "latitude": -37.0221602,
    "longitude": 174.8974117,
    "osm_id": 3658338991,
    "source": "osm"
  },
  {
    "name": "Medical Care and Dental Services",
    "facility_type": "gp",
    "latitude": -37.0219905,
    "longitude": 174.8984881,
    "osm_id": 3658338992,
    "source": "osm"
  },
  {
    "name": "Manukau City Accident and Medical",
    "facility_type": "gp",
    "latitude": -36.988893,
    "longitude": 174.8848987,
    "osm_id": 3659973178,
    "source": "osm"
  },
  {
    "name": "Manukau Family Doctors",
    "facility_type": "gp",
    "latitude": -36.9844208,
    "longitude": 174.8786552,
    "osm_id": 3659973179,
    "source": "osm"
  },
  {
    "name": "Surgery South",
    "facility_type": "hospital",
    "latitude": -36.9876277,
    "longitude": 174.8832649,
    "osm_id": 3659973200,
    "source": "osm"
  },
  {
    "name": "Howick Medical Practice",
    "facility_type": "gp",
    "latitude": -36.8951758,
    "longitude": 174.9334478,
    "osm_id": 3663904502,
    "source": "osm"
  },
  {
    "name": "Picton Street Surgery",
    "facility_type": "hospital",
    "latitude": -36.8924792,
    "longitude": 174.9297557,
    "osm_id": 3663904508,
    "source": "osm"
  },
  {
    "name": "Selwyn House Medical Centre",
    "facility_type": "gp",
    "latitude": -36.8945846,
    "longitude": 174.9297879,
    "osm_id": 3663904511,
    "source": "osm"
  },
  {
    "name": "Highgate Surgery",
    "facility_type": "gp",
    "latitude": -36.9196834,
    "longitude": 174.9151911,
    "osm_id": 3666557167,
    "source": "osm"
  },
  {
    "name": "Millhouse Integrative Medical Centre",
    "facility_type": "gp",
    "latitude": -36.9192825,
    "longitude": 174.9177597,
    "osm_id": 3666557177,
    "source": "osm"
  },
  {
    "name": "Millhouse Medical Centre",
    "facility_type": "gp",
    "latitude": -36.919132,
    "longitude": 174.9179185,
    "osm_id": 3666557178,
    "source": "osm"
  },
  {
    "name": "The Doctors Accident and Medical",
    "facility_type": "gp",
    "latitude": -36.9265757,
    "longitude": 174.8978616,
    "osm_id": 3666557191,
    "source": "osm"
  },
  {
    "name": "Dannemora Medical Centre",
    "facility_type": "gp",
    "latitude": -36.9451878,
    "longitude": 174.9070999,
    "osm_id": 3674684231,
    "source": "osm"
  },
  {
    "name": "Otara Integrated Health Centre",
    "facility_type": "gp",
    "latitude": -36.9620272,
    "longitude": 174.8733716,
    "osm_id": 3674831982,
    "source": "osm"
  },
  {
    "name": "Botany Junction Medical",
    "facility_type": "gp",
    "latitude": -36.9649428,
    "longitude": 174.9034775,
    "osm_id": 3678186661,
    "source": "osm"
  },
  {
    "name": "East Tamaki Family Doctors",
    "facility_type": "gp",
    "latitude": -36.9666823,
    "longitude": 174.9058329,
    "osm_id": 3678186670,
    "source": "osm"
  },
  {
    "name": "East Tamaki Medical Centre",
    "facility_type": "gp",
    "latitude": -36.9768828,
    "longitude": 174.8961498,
    "osm_id": 3678186672,
    "source": "osm"
  },
  {
    "name": "Avalon Medical",
    "facility_type": "gp",
    "latitude": -37.7797797,
    "longitude": 175.2489838,
    "osm_id": 3678265740,
    "source": "osm"
  },
  {
    "name": "Mount Eden Village Doctors",
    "facility_type": "gp",
    "latitude": -36.8818249,
    "longitude": 174.7616527,
    "osm_id": 3678419756,
    "source": "osm"
  },
  {
    "name": "Auckland City Surgical Services Limited",
    "facility_type": "hospital",
    "latitude": -36.8737084,
    "longitude": 174.782235,
    "osm_id": 3683343748,
    "source": "osm"
  },
  {
    "name": "Auckland Skin and Cancer Foundation",
    "facility_type": "hospital",
    "latitude": -36.8797205,
    "longitude": 174.791678,
    "osm_id": 3683343750,
    "source": "osm"
  },
  {
    "name": "Eye Institute",
    "facility_type": "gp",
    "latitude": -36.8743799,
    "longitude": 174.7832991,
    "osm_id": 3683343756,
    "source": "osm"
  },
  {
    "name": "Juilan Lofts and Zachary Moaveni Plastic Surgeons",
    "facility_type": "hospital",
    "latitude": -36.8814718,
    "longitude": 174.7998924,
    "osm_id": 3683343758,
    "source": "osm"
  },
  {
    "name": "Langstone Clinic",
    "facility_type": "gp",
    "latitude": -36.8739777,
    "longitude": 174.7834159,
    "osm_id": 3683343761,
    "source": "osm"
  },
  {
    "name": "Plastic and Cosmetic Surgery",
    "facility_type": "hospital",
    "latitude": -36.8796782,
    "longitude": 174.7913607,
    "osm_id": 3683343767,
    "source": "osm"
  },
  {
    "name": "Remuera Chiropractic Centre",
    "facility_type": "gp",
    "latitude": -36.873334,
    "longitude": 174.7823208,
    "osm_id": 3683343768,
    "source": "osm"
  },
  {
    "name": "Spinewave",
    "facility_type": "gp",
    "latitude": -36.8732241,
    "longitude": 174.7821852,
    "osm_id": 3683343771,
    "source": "osm"
  },
  {
    "name": "Wong Doo Health Clinic",
    "facility_type": "gp",
    "latitude": -36.8722079,
    "longitude": 174.7800115,
    "osm_id": 3683343774,
    "source": "osm"
  },
  {
    "name": "Dilworth Hearing",
    "facility_type": "gp",
    "latitude": -36.8750755,
    "longitude": 174.7843411,
    "osm_id": 3684974256,
    "source": "osm"
  },
  {
    "name": "Otahuhu Medical Center - Ahmad",
    "facility_type": "gp",
    "latitude": -36.9456353,
    "longitude": 174.8446158,
    "osm_id": 3688835410,
    "source": "osm"
  },
  {
    "name": "Health 4U",
    "facility_type": "gp",
    "latitude": -37.6790155,
    "longitude": 176.2267826,
    "osm_id": 3694420010,
    "source": "osm"
  },
  {
    "name": "Mount Medical Centre",
    "facility_type": "gp",
    "latitude": -37.6410828,
    "longitude": 176.1850926,
    "osm_id": 3694440629,
    "source": "osm"
  },
  {
    "name": "Waihi Health Centre",
    "facility_type": "gp",
    "latitude": -37.3908777,
    "longitude": 175.838917,
    "osm_id": 3694455966,
    "source": "osm"
  },
  {
    "name": "Bethlehem Medical Centre",
    "facility_type": "gp",
    "latitude": -37.6934911,
    "longitude": 176.1112484,
    "osm_id": 3694546907,
    "source": "osm"
  },
  {
    "name": "South City Medical Centre",
    "facility_type": "gp",
    "latitude": -37.6936861,
    "longitude": 176.1629415,
    "osm_id": 3694565556,
    "source": "osm"
  },
  {
    "name": "Bay Radiology",
    "facility_type": "gp",
    "latitude": -37.6748972,
    "longitude": 176.2285783,
    "osm_id": 3694711689,
    "source": "osm"
  },
  {
    "name": "The Doctors Bayfair",
    "facility_type": "gp",
    "latitude": -37.6745444,
    "longitude": 176.2278108,
    "osm_id": 3694711690,
    "source": "osm"
  },
  {
    "name": "The Doctors Papamoa",
    "facility_type": "gp",
    "latitude": -37.7013168,
    "longitude": 176.2823524,
    "osm_id": 3694711692,
    "source": "osm"
  },
  {
    "name": "Dee Street Medical Centre",
    "facility_type": "gp",
    "latitude": -37.6560118,
    "longitude": 176.2018263,
    "osm_id": 3694711704,
    "source": "osm"
  },
  {
    "name": "Girven Road Medical Centre",
    "facility_type": "gp",
    "latitude": -37.6725572,
    "longitude": 176.2313461,
    "osm_id": 3694711715,
    "source": "osm"
  },
  {
    "name": "Skinspots Skin Cancer Clinic",
    "facility_type": "gp",
    "latitude": -37.6745659,
    "longitude": 176.2278468,
    "osm_id": 3694711753,
    "source": "osm"
  },
  {
    "name": "Dr. Weng Key Chan - Otahuhu Family Doctors",
    "facility_type": "gp",
    "latitude": -36.9441365,
    "longitude": 174.8406195,
    "osm_id": 3719197191,
    "source": "osm"
  },
  {
    "name": "Awanui Labs",
    "facility_type": "gp",
    "latitude": -36.9437256,
    "longitude": 174.8417658,
    "osm_id": 3720672125,
    "source": "osm"
  },
  {
    "name": "Mauranui Clinic",
    "facility_type": "gp",
    "latitude": -36.8787257,
    "longitude": 174.7818424,
    "osm_id": 3725858517,
    "source": "osm"
  },
  {
    "name": "Hobsonville Point Medical Centre",
    "facility_type": "gp",
    "latitude": -36.7928119,
    "longitude": 174.6608307,
    "osm_id": 3730506580,
    "source": "osm"
  },
  {
    "name": "Silverdale Medical",
    "facility_type": "gp",
    "latitude": -36.6043598,
    "longitude": 174.6784945,
    "osm_id": 3730506589,
    "source": "osm"
  },
  {
    "name": "Ferry Road Medical Centre",
    "facility_type": "gp",
    "latitude": -43.5410365,
    "longitude": 172.6603145,
    "osm_id": 3732464102,
    "source": "osm"
  },
  {
    "name": "Leamington Medical Centre",
    "facility_type": "gp",
    "latitude": -37.9060384,
    "longitude": 175.4749408,
    "osm_id": 3736802617,
    "source": "osm"
  },
  {
    "name": "Ngongotah\u0101 Medical Centre",
    "facility_type": "gp",
    "latitude": -38.0808221,
    "longitude": 176.2137877,
    "osm_id": 3736819650,
    "source": "osm"
  },
  {
    "name": "West End Medical",
    "facility_type": "gp",
    "latitude": -38.1453307,
    "longitude": 176.2376194,
    "osm_id": 3736871796,
    "source": "osm"
  },
  {
    "name": "Fairy Springs Medical Centre",
    "facility_type": "gp",
    "latitude": -38.1155164,
    "longitude": 176.2257047,
    "osm_id": 3736895482,
    "source": "osm"
  },
  {
    "name": "Ranolf Medical Centre",
    "facility_type": "gp",
    "latitude": -38.1412541,
    "longitude": 176.2465016,
    "osm_id": 3736895491,
    "source": "osm"
  },
  {
    "name": "Central Health",
    "facility_type": "gp",
    "latitude": -38.1355461,
    "longitude": 176.2482897,
    "osm_id": 3736955596,
    "source": "osm"
  },
  {
    "name": "Kuirau Medical Centre",
    "facility_type": "gp",
    "latitude": -38.1312096,
    "longitude": 176.240973,
    "osm_id": 3736955613,
    "source": "osm"
  },
  {
    "name": "Lakes Care Medical Centre",
    "facility_type": "gp",
    "latitude": -38.1351712,
    "longitude": 176.2513088,
    "osm_id": 3736955616,
    "source": "osm"
  },
  {
    "name": "Te Ngae Medical Centre",
    "facility_type": "gp",
    "latitude": -38.1485917,
    "longitude": 176.2768613,
    "osm_id": 3736956431,
    "source": "osm"
  },
  {
    "name": "Tiaho Medical Centre",
    "facility_type": "gp",
    "latitude": -38.129646,
    "longitude": 176.3024744,
    "osm_id": 3737023794,
    "source": "osm"
  },
  {
    "name": "West Auckland Health Care Doctors",
    "facility_type": "gp",
    "latitude": -36.8824769,
    "longitude": 174.6327754,
    "osm_id": 3740816553,
    "source": "osm"
  },
  {
    "name": "Musselburgh Medical Center",
    "facility_type": "gp",
    "latitude": -45.8974395,
    "longitude": 170.5154884,
    "osm_id": 3744922265,
    "source": "osm"
  },
  {
    "name": "Ranfurly Medical Center",
    "facility_type": "gp",
    "latitude": -36.8847771,
    "longitude": 174.7753342,
    "osm_id": 3744924970,
    "source": "osm"
  },
  {
    "name": "Waverley Health Centre",
    "facility_type": "gp",
    "latitude": -45.884442,
    "longitude": 170.5310538,
    "osm_id": 3744931425,
    "source": "osm"
  },
  {
    "name": "Three Kings Accident and Medical",
    "facility_type": "gp",
    "latitude": -36.9085965,
    "longitude": 174.7552359,
    "osm_id": 3745165053,
    "source": "osm"
  },
  {
    "name": "Back In Motion Physiotherapy Clinic",
    "facility_type": "gp",
    "latitude": -45.897454,
    "longitude": 170.5155223,
    "osm_id": 3752252128,
    "source": "osm"
  },
  {
    "name": "Awanui Labs",
    "facility_type": "gp",
    "latitude": -36.7734486,
    "longitude": 174.5509698,
    "osm_id": 3761238534,
    "source": "osm"
  },
  {
    "name": "Odyssey",
    "facility_type": "gp",
    "latitude": -36.9053386,
    "longitude": 174.6855749,
    "osm_id": 3772226087,
    "source": "osm"
  },
  {
    "name": "Da Vinci Clinic",
    "facility_type": "gp",
    "latitude": -37.7030765,
    "longitude": 176.1538212,
    "osm_id": 3787155240,
    "source": "osm"
  },
  {
    "name": "Knee and Spinal Clinic",
    "facility_type": "gp",
    "latitude": -37.7042165,
    "longitude": 176.1527461,
    "osm_id": 3787155248,
    "source": "osm"
  },
  {
    "name": "Grey Street Family Health Centre",
    "facility_type": "gp",
    "latitude": -37.7888877,
    "longitude": 175.2914582,
    "osm_id": 3789913925,
    "source": "osm"
  },
  {
    "name": "Medical Centre",
    "facility_type": "gp",
    "latitude": -37.7261986,
    "longitude": 176.1680587,
    "osm_id": 3790843101,
    "source": "osm"
  },
  {
    "name": "Welcome Bay Health",
    "facility_type": "gp",
    "latitude": -37.7268927,
    "longitude": 176.1744637,
    "osm_id": 3790843110,
    "source": "osm"
  },
  {
    "name": "Asthma and Respiratory Centre",
    "facility_type": "gp",
    "latitude": -37.7256979,
    "longitude": 176.1312908,
    "osm_id": 3790909651,
    "source": "osm"
  },
  {
    "name": "Chadwick Health Centre",
    "facility_type": "gp",
    "latitude": -37.7279767,
    "longitude": 176.1357218,
    "osm_id": 3790910564,
    "source": "osm"
  },
  {
    "name": "Greerton Health",
    "facility_type": "gp",
    "latitude": -37.72783,
    "longitude": 176.1362326,
    "osm_id": 3790910577,
    "source": "osm"
  },
  {
    "name": "Greerton Medical Clinic",
    "facility_type": "gp",
    "latitude": -37.7270208,
    "longitude": 176.1322525,
    "osm_id": 3790910579,
    "source": "osm"
  },
  {
    "name": "New Zealand Red Cross",
    "facility_type": "gp",
    "latitude": -37.7256938,
    "longitude": 176.1322402,
    "osm_id": 3790910591,
    "source": "osm"
  },
  {
    "name": "Surgical Specialists",
    "facility_type": "hospital",
    "latitude": -37.707794,
    "longitude": 176.1584077,
    "osm_id": 3790910607,
    "source": "osm"
  },
  {
    "name": "The Life Clinic",
    "facility_type": "gp",
    "latitude": -37.7098561,
    "longitude": 176.1562084,
    "osm_id": 3790910610,
    "source": "osm"
  },
  {
    "name": "Bay Sports Med",
    "facility_type": "gp",
    "latitude": -37.699555,
    "longitude": 176.1633867,
    "osm_id": 3790960826,
    "source": "osm"
  },
  {
    "name": "Second Avenue Health Centre",
    "facility_type": "gp",
    "latitude": -37.6892795,
    "longitude": 176.1682355,
    "osm_id": 3790960852,
    "source": "osm"
  },
  {
    "name": "Otumoetai Health Centre",
    "facility_type": "gp",
    "latitude": -37.6664185,
    "longitude": 176.1394603,
    "osm_id": 3792168035,
    "source": "osm"
  },
  {
    "name": "Brookfield Medical Centre",
    "facility_type": "gp",
    "latitude": -37.671058,
    "longitude": 176.1525807,
    "osm_id": 3792182830,
    "source": "osm"
  },
  {
    "name": "Health Centre",
    "facility_type": "gp",
    "latitude": -38.1659416,
    "longitude": 176.2438689,
    "osm_id": 3796283879,
    "source": "osm"
  },
  {
    "name": "Herne Bay Medical Centre",
    "facility_type": "gp",
    "latitude": -36.8458475,
    "longitude": 174.7350037,
    "osm_id": 3801691869,
    "source": "osm"
  },
  {
    "name": "Rototuna Physiotherapy Clinic",
    "facility_type": "gp",
    "latitude": -37.7308309,
    "longitude": 175.2799983,
    "osm_id": 3824157885,
    "source": "osm"
  },
  {
    "name": "Unknown",
    "facility_type": "hospital",
    "latitude": -46.0924906,
    "longitude": 168.9329466,
    "osm_id": 3864273294,
    "source": "osm"
  },
  {
    "name": "Avondale Family Doctors",
    "facility_type": "gp",
    "latitude": -36.8944336,
    "longitude": 174.6969823,
    "osm_id": 3879177603,
    "source": "osm"
  },
  {
    "name": "Green Bay Medical Centre",
    "facility_type": "gp",
    "latitude": -36.9310144,
    "longitude": 174.6786782,
    "osm_id": 3879177618,
    "source": "osm"
  },
  {
    "name": "New Zealand Red Cross",
    "facility_type": "gp",
    "latitude": -38.011373,
    "longitude": 175.3253436,
    "osm_id": 3915536475,
    "source": "osm"
  },
  {
    "name": "Te Awamutu Medical Centre",
    "facility_type": "gp",
    "latitude": -38.0111452,
    "longitude": 175.3222458,
    "osm_id": 3915536485,
    "source": "osm"
  },
  {
    "name": "Taupo Health Centre",
    "facility_type": "gp",
    "latitude": -38.6892626,
    "longitude": 176.0761769,
    "osm_id": 3915840113,
    "source": "osm"
  },
  {
    "name": "Taupo Medical Centre",
    "facility_type": "gp",
    "latitude": -38.6894361,
    "longitude": 176.076624,
    "osm_id": 3915840114,
    "source": "osm"
  },
  {
    "name": "Unknown",
    "facility_type": "gp",
    "latitude": -38.6894991,
    "longitude": 176.0766007,
    "osm_id": 3915842644,
    "source": "osm"
  },
  {
    "name": "Tui Medical Centre",
    "facility_type": "gp",
    "latitude": -35.7398627,
    "longitude": 174.2825257,
    "osm_id": 3931753182,
    "source": "osm"
  },
  {
    "name": "Central Family Health Centre",
    "facility_type": "gp",
    "latitude": -35.7202601,
    "longitude": 174.3200039,
    "osm_id": 3931789896,
    "source": "osm"
  },
  {
    "name": "Accupuncture Clinic",
    "facility_type": "gp",
    "latitude": -35.6980172,
    "longitude": 174.3123244,
    "osm_id": 3933065318,
    "source": "osm"
  },
  {
    "name": "Cancer Society Northland",
    "facility_type": "gp",
    "latitude": -35.7104219,
    "longitude": 174.3217057,
    "osm_id": 3933065321,
    "source": "osm"
  },
  {
    "name": "Doctor Physio and Podiatry",
    "facility_type": "gp",
    "latitude": -35.6871371,
    "longitude": 174.3264283,
    "osm_id": 3933065324,
    "source": "osm"
  },
  {
    "name": "Kensington Hospital",
    "facility_type": "hospital",
    "latitude": -35.7086312,
    "longitude": 174.3196256,
    "osm_id": 3933065334,
    "source": "osm"
  },
  {
    "name": "Northland Orthopedic Centre",
    "facility_type": "gp",
    "latitude": -35.7093925,
    "longitude": 174.3193487,
    "osm_id": 3933065344,
    "source": "osm"
  },
  {
    "name": "Prime Care Medical Centre",
    "facility_type": "gp",
    "latitude": -35.7085675,
    "longitude": 174.3199907,
    "osm_id": 3933065346,
    "source": "osm"
  },
  {
    "name": "Whangarei Physio Services",
    "facility_type": "gp",
    "latitude": -35.6873681,
    "longitude": 174.3028469,
    "osm_id": 3933065355,
    "source": "osm"
  },
  {
    "name": "Widdowson Sprague Doctors",
    "facility_type": "gp",
    "latitude": -35.6829196,
    "longitude": 174.3005234,
    "osm_id": 3933065356,
    "source": "osm"
  },
  {
    "name": "The Doctors",
    "facility_type": "gp",
    "latitude": -39.5231808,
    "longitude": 176.868655,
    "osm_id": 3975069099,
    "source": "osm"
  },
  {
    "name": "168 Medical Centre",
    "facility_type": "gp",
    "latitude": -36.8779841,
    "longitude": 174.74097,
    "osm_id": 3977655512,
    "source": "osm"
  },
  {
    "name": "Health and Happiness (un) Ltd",
    "facility_type": "gp",
    "latitude": -36.977741,
    "longitude": 174.8716061,
    "osm_id": 4005100233,
    "source": "osm"
  },
  {
    "name": "One Six One",
    "facility_type": "gp",
    "latitude": -36.8800998,
    "longitude": 174.7715065,
    "osm_id": 4019089021,
    "source": "osm"
  },
  {
    "name": "Totara Health",
    "facility_type": "gp",
    "latitude": -39.6222873,
    "longitude": 176.7832465,
    "osm_id": 4034063098,
    "source": "osm"
  },
  {
    "name": "Rakaia Medical Centre",
    "facility_type": "gp",
    "latitude": -43.7549959,
    "longitude": 172.0197023,
    "osm_id": 4087890702,
    "source": "osm"
  },
  {
    "name": "Riverslea Medical Centre",
    "facility_type": "gp",
    "latitude": -37.9749338,
    "longitude": 176.8266357,
    "osm_id": 4161058589,
    "source": "osm"
  },
  {
    "name": "Upper Hutt Health Centre",
    "facility_type": "gp",
    "latitude": -41.1219274,
    "longitude": 175.0732564,
    "osm_id": 4202115449,
    "source": "osm"
  },
  {
    "name": "Westview Medical Centre",
    "facility_type": "gp",
    "latitude": -36.9104077,
    "longitude": 174.6497677,
    "osm_id": 4224672529,
    "source": "osm"
  },
  {
    "name": "Auckland ENT Group",
    "facility_type": "gp",
    "latitude": -36.8816589,
    "longitude": 174.7755392,
    "osm_id": 4226312950,
    "source": "osm"
  },
  {
    "name": "Medical Center",
    "facility_type": "gp",
    "latitude": -44.6329394,
    "longitude": 168.8960503,
    "osm_id": 4264033691,
    "source": "osm"
  },
  {
    "name": "City Medical",
    "facility_type": "gp",
    "latitude": -39.4956769,
    "longitude": 176.9133333,
    "osm_id": 4283841851,
    "source": "osm"
  },
  {
    "name": "575 Doctors",
    "facility_type": "gp",
    "latitude": -36.8872805,
    "longitude": 174.7602388,
    "osm_id": 4342102305,
    "source": "osm"
  },
  {
    "name": "Shorecare",
    "facility_type": "hospital",
    "latitude": -36.7846029,
    "longitude": 174.7531301,
    "osm_id": 4374979490,
    "source": "osm"
  },
  {
    "name": "Karamea Health Clinic",
    "facility_type": "gp",
    "latitude": -41.2491707,
    "longitude": 172.1197595,
    "osm_id": 4378201347,
    "source": "osm"
  },
  {
    "name": "Breast Screen Aotearoa",
    "facility_type": "gp",
    "latitude": -36.8189805,
    "longitude": 174.6115004,
    "osm_id": 4459956348,
    "source": "osm"
  },
  {
    "name": "Unknown",
    "facility_type": "gp",
    "latitude": -45.8709802,
    "longitude": 170.4832011,
    "osm_id": 4473012604,
    "source": "osm"
  },
  {
    "name": "Mount Albert Medical and Dental Centre",
    "facility_type": "gp",
    "latitude": -36.8856674,
    "longitude": 174.7142331,
    "osm_id": 4483541169,
    "source": "osm"
  },
  {
    "name": "Strandon Professional Centre",
    "facility_type": "gp",
    "latitude": -39.0499642,
    "longitude": 174.094858,
    "osm_id": 4584697649,
    "source": "osm"
  },
  {
    "name": "CareFirst Moturoa",
    "facility_type": "gp",
    "latitude": -39.0627849,
    "longitude": 174.0459067,
    "osm_id": 4584783340,
    "source": "osm"
  },
  {
    "name": "Tukapa Medical Centre",
    "facility_type": "gp",
    "latitude": -39.0709576,
    "longitude": 174.0620866,
    "osm_id": 4584784577,
    "source": "osm"
  },
  {
    "name": "Carefirst",
    "facility_type": "gp",
    "latitude": -39.0739518,
    "longitude": 174.0594039,
    "osm_id": 4584784606,
    "source": "osm"
  },
  {
    "name": "Eastside Medical Centre",
    "facility_type": "gp",
    "latitude": -39.0510853,
    "longitude": 174.097581,
    "osm_id": 4584902503,
    "source": "osm"
  },
  {
    "name": "Medi Cross",
    "facility_type": "gp",
    "latitude": -39.0572713,
    "longitude": 174.0707145,
    "osm_id": 4584902644,
    "source": "osm"
  },
  {
    "name": "Vivian Medical Centre",
    "facility_type": "gp",
    "latitude": -39.060567,
    "longitude": 174.070631,
    "osm_id": 4584902711,
    "source": "osm"
  },
  {
    "name": "Devon Medical Centre",
    "facility_type": "gp",
    "latitude": -39.0613837,
    "longitude": 174.0625465,
    "osm_id": 4584936904,
    "source": "osm"
  },
  {
    "name": "Baderdrive Doctors",
    "facility_type": "gp",
    "latitude": -37.0208845,
    "longitude": 174.8967944,
    "osm_id": 4624427478,
    "source": "osm"
  },
  {
    "name": "Skin Institute",
    "facility_type": "gp",
    "latitude": -36.8744428,
    "longitude": 174.7832397,
    "osm_id": 4631571385,
    "source": "osm"
  },
  {
    "name": "Unknown",
    "facility_type": "gp",
    "latitude": -41.2947291,
    "longitude": 174.774019,
    "osm_id": 4638867790,
    "source": "osm"
  },
  {
    "name": "Impilo Family Practice",
    "facility_type": "gp",
    "latitude": -39.9297478,
    "longitude": 175.0487795,
    "osm_id": 4641491003,
    "source": "osm"
  },
  {
    "name": "Castlecliff Health",
    "facility_type": "gp",
    "latitude": -39.938489,
    "longitude": 174.9933561,
    "osm_id": 4641574153,
    "source": "osm"
  },
  {
    "name": "Springvale Medical Centre",
    "facility_type": "gp",
    "latitude": -39.931736,
    "longitude": 175.0216866,
    "osm_id": 4641579522,
    "source": "osm"
  },
  {
    "name": "Cancer Society New Zealand",
    "facility_type": "gp",
    "latitude": -39.9420255,
    "longitude": 175.0393051,
    "osm_id": 4641579559,
    "source": "osm"
  },
  {
    "name": "St Johns Medical Centre",
    "facility_type": "gp",
    "latitude": -39.9248221,
    "longitude": 175.0403456,
    "osm_id": 4646787321,
    "source": "osm"
  },
  {
    "name": "MSM Pain Clinic",
    "facility_type": "gp",
    "latitude": -39.9240687,
    "longitude": 175.0405037,
    "osm_id": 4646787334,
    "source": "osm"
  },
  {
    "name": "Aramoho Health Centre",
    "facility_type": "gp",
    "latitude": -39.9092765,
    "longitude": 175.0537687,
    "osm_id": 4646787826,
    "source": "osm"
  },
  {
    "name": "Queenstown Medical Centre",
    "facility_type": "gp",
    "latitude": -45.0299233,
    "longitude": 168.6582531,
    "osm_id": 4650574489,
    "source": "osm"
  },
  {
    "name": "Langimalie Medical Centre",
    "facility_type": "gp",
    "latitude": -36.9008372,
    "longitude": 174.8562642,
    "osm_id": 4662910739,
    "source": "osm"
  },
  {
    "name": "Panmure Medical Centre",
    "facility_type": "gp",
    "latitude": -36.9009823,
    "longitude": 174.8574714,
    "osm_id": 4662910743,
    "source": "osm"
  },
  {
    "name": "Turuki Healthcare",
    "facility_type": "gp",
    "latitude": -36.8993225,
    "longitude": 174.8537465,
    "osm_id": 4662910767,
    "source": "osm"
  },
  {
    "name": "\u014crere Health Clinic",
    "facility_type": "gp",
    "latitude": -36.9591404,
    "longitude": 175.2428197,
    "osm_id": 4666691178,
    "source": "osm"
  },
  {
    "name": "Bishop Medical Centre",
    "facility_type": "gp",
    "latitude": -36.9619909,
    "longitude": 174.8995041,
    "osm_id": 4666730695,
    "source": "osm"
  },
  {
    "name": "Universal Energy Chinese Medical Centre",
    "facility_type": "gp",
    "latitude": -36.9619944,
    "longitude": 174.9009354,
    "osm_id": 4666730701,
    "source": "osm"
  },
  {
    "name": "Flexa Clinic",
    "facility_type": "gp",
    "latitude": -36.7988359,
    "longitude": 174.7445855,
    "osm_id": 4675907989,
    "source": "osm"
  },
  {
    "name": "Auckland Eye",
    "facility_type": "gp",
    "latitude": -36.791822,
    "longitude": 174.7635514,
    "osm_id": 4687856166,
    "source": "osm"
  },
  {
    "name": "Waikato Osteopathic Centre",
    "facility_type": "gp",
    "latitude": -37.7655661,
    "longitude": 175.2678093,
    "osm_id": 4704825006,
    "source": "osm"
  },
  {
    "name": "River Road Family Practice",
    "facility_type": "gp",
    "latitude": -37.7701804,
    "longitude": 175.2704136,
    "osm_id": 4704825051,
    "source": "osm"
  },
  {
    "name": "Queen Street Medical Centre",
    "facility_type": "gp",
    "latitude": -41.1226374,
    "longitude": 175.0738984,
    "osm_id": 4715971606,
    "source": "osm"
  },
  {
    "name": "Body Works Clinic",
    "facility_type": "gp",
    "latitude": -36.7202038,
    "longitude": 174.7103225,
    "osm_id": 4717617703,
    "source": "osm"
  },
  {
    "name": "The Doctors",
    "facility_type": "gp",
    "latitude": -36.7910358,
    "longitude": 174.7636584,
    "osm_id": 4719895400,
    "source": "osm"
  },
  {
    "name": "Mercy Radiology",
    "facility_type": "gp",
    "latitude": -36.790973,
    "longitude": 174.7638538,
    "osm_id": 4721682882,
    "source": "osm"
  },
  {
    "name": "Karaka Medical Specialists",
    "facility_type": "gp",
    "latitude": -37.0742066,
    "longitude": 174.9229806,
    "osm_id": 4741042741,
    "source": "osm"
  },
  {
    "name": "Karaka Family Health",
    "facility_type": "gp",
    "latitude": -37.074075,
    "longitude": 174.9227446,
    "osm_id": 4741042742,
    "source": "osm"
  },
  {
    "name": "Tuakau Health Centre",
    "facility_type": "gp",
    "latitude": -37.2605237,
    "longitude": 174.9461741,
    "osm_id": 4741046010,
    "source": "osm"
  },
  {
    "name": "Great Wall Health Centre",
    "facility_type": "gp",
    "latitude": -36.8578932,
    "longitude": 174.7593672,
    "osm_id": 4753906339,
    "source": "osm"
  },
  {
    "name": "Sexual Wellbeing Aotearoa",
    "facility_type": "gp",
    "latitude": -43.5408737,
    "longitude": 172.6436499,
    "osm_id": 4759223534,
    "source": "osm"
  },
  {
    "name": "Dialysis Unit - Ballantyne House",
    "facility_type": "gp",
    "latitude": -39.6296535,
    "longitude": 176.8252978,
    "osm_id": 4763201552,
    "source": "osm"
  },
  {
    "name": "Cromwell Medical Centre",
    "facility_type": "gp",
    "latitude": -45.037734,
    "longitude": 169.1961947,
    "osm_id": 4778026828,
    "source": "osm"
  },
  {
    "name": "Tui Radiology",
    "facility_type": "gp",
    "latitude": -37.7618646,
    "longitude": 175.2869206,
    "osm_id": 4782440568,
    "source": "osm"
  },
  {
    "name": "Mission Health",
    "facility_type": "gp",
    "latitude": -37.7716345,
    "longitude": 175.2824675,
    "osm_id": 4784113881,
    "source": "osm"
  },
  {
    "name": "The Fono Medical and Dental",
    "facility_type": "gp",
    "latitude": -36.846705,
    "longitude": 174.7637749,
    "osm_id": 4797304748,
    "source": "osm"
  },
  {
    "name": "Gain Health Centre",
    "facility_type": "gp",
    "latitude": -41.1253843,
    "longitude": 175.0582753,
    "osm_id": 4805689650,
    "source": "osm"
  },
  {
    "name": "24 Hour Surgery",
    "facility_type": "hospital",
    "latitude": -43.5216188,
    "longitude": 172.6415322,
    "osm_id": 4852747857,
    "source": "osm"
  },
  {
    "name": "24 Hour Surgery",
    "facility_type": "gp",
    "latitude": -43.5217008,
    "longitude": 172.641533,
    "osm_id": 4852774123,
    "source": "osm"
  },
  {
    "name": "Canopy Imaging",
    "facility_type": "gp",
    "latitude": -36.8642867,
    "longitude": 174.6301269,
    "osm_id": 4855099678,
    "source": "osm"
  },
  {
    "name": "Horizon Radiology",
    "facility_type": "gp",
    "latitude": -36.8601363,
    "longitude": 174.6308208,
    "osm_id": 4855100416,
    "source": "osm"
  },
  {
    "name": "The Doctors Massey",
    "facility_type": "gp",
    "latitude": -36.8349826,
    "longitude": 174.6025266,
    "osm_id": 4855260686,
    "source": "osm"
  },
  {
    "name": "Palomino Medical Centre",
    "facility_type": "gp",
    "latitude": -36.883277,
    "longitude": 174.6150181,
    "osm_id": 4855262467,
    "source": "osm"
  },
  {
    "name": "Hamilton Lake Clinic",
    "facility_type": "gp",
    "latitude": -37.7961174,
    "longitude": 175.2810695,
    "osm_id": 4894872234,
    "source": "osm"
  },
  {
    "name": "Pacfiic Radiology",
    "facility_type": "gp",
    "latitude": -37.7962764,
    "longitude": 175.2811339,
    "osm_id": 4894872245,
    "source": "osm"
  },
  {
    "name": "Orthotic Centre",
    "facility_type": "gp",
    "latitude": -37.7966245,
    "longitude": 175.2811687,
    "osm_id": 4894872256,
    "source": "osm"
  },
  {
    "name": "Bloom Hearing",
    "facility_type": "gp",
    "latitude": -37.7968033,
    "longitude": 175.2811962,
    "osm_id": 4894872265,
    "source": "osm"
  },
  {
    "name": "Awanui Labs",
    "facility_type": "gp",
    "latitude": -36.8863744,
    "longitude": 174.6449056,
    "osm_id": 4910282474,
    "source": "osm"
  },
  {
    "name": "Dr Barbara O'Connell",
    "facility_type": "gp",
    "latitude": -44.3954784,
    "longitude": 171.2477505,
    "osm_id": 4920353224,
    "source": "osm"
  },
  {
    "name": "Awanui Labs",
    "facility_type": "gp",
    "latitude": -36.6756858,
    "longitude": 174.4510877,
    "osm_id": 4921604857,
    "source": "osm"
  },
  {
    "name": "Cancer Society Sth Canterbury",
    "facility_type": "gp",
    "latitude": -44.4075297,
    "longitude": 171.2547442,
    "osm_id": 4921827524,
    "source": "osm"
  },
  {
    "name": "Hearing Association",
    "facility_type": "gp",
    "latitude": -44.4073548,
    "longitude": 171.2544381,
    "osm_id": 4921827525,
    "source": "osm"
  },
  {
    "name": "Royal Heights Medical Centre",
    "facility_type": "gp",
    "latitude": -36.8327343,
    "longitude": 174.6233267,
    "osm_id": 4925896199,
    "source": "osm"
  },
  {
    "name": "Awanui Labs",
    "facility_type": "gp",
    "latitude": -36.8222237,
    "longitude": 174.6121973,
    "osm_id": 4925897647,
    "source": "osm"
  },
  {
    "name": "Kelston Medical Centre and Pharmacy",
    "facility_type": "gp",
    "latitude": -36.9056024,
    "longitude": 174.6636105,
    "osm_id": 4925897692,
    "source": "osm"
  },
  {
    "name": "Sandringham Health Centre",
    "facility_type": "gp",
    "latitude": -36.8917823,
    "longitude": 174.7364925,
    "osm_id": 4943367482,
    "source": "osm"
  },
  {
    "name": "Stoddard Road Medical Centre",
    "facility_type": "gp",
    "latitude": -36.8999806,
    "longitude": 174.721167,
    "osm_id": 4943409500,
    "source": "osm"
  },
  {
    "name": "Auckland Gastroenterology Associates",
    "facility_type": "gp",
    "latitude": -36.9569118,
    "longitude": 174.7840309,
    "osm_id": 4943790931,
    "source": "osm"
  },
  {
    "name": "New Zealand Blood Service Donor Centre",
    "facility_type": "gp",
    "latitude": -37.684922,
    "longitude": 176.1661996,
    "osm_id": 4946456236,
    "source": "osm"
  },
  {
    "name": "Mount Roskill Medical and Surgical Centre",
    "facility_type": "gp",
    "latitude": -36.9131713,
    "longitude": 174.7280118,
    "osm_id": 4956158919,
    "source": "osm"
  },
  {
    "name": "Physiotherapy",
    "facility_type": "gp",
    "latitude": -36.9129788,
    "longitude": 174.7280789,
    "osm_id": 4956159221,
    "source": "osm"
  },
  {
    "name": "Mount Roskill Medical Centre",
    "facility_type": "gp",
    "latitude": -36.9082134,
    "longitude": 174.7334292,
    "osm_id": 4956159233,
    "source": "osm"
  },
  {
    "name": "Medical and Dental Centre",
    "facility_type": "gp",
    "latitude": -36.9027527,
    "longitude": 174.7425066,
    "osm_id": 4956159306,
    "source": "osm"
  },
  {
    "name": "Active+",
    "facility_type": "gp",
    "latitude": -36.9218521,
    "longitude": 174.7134686,
    "osm_id": 4956180994,
    "source": "osm"
  },
  {
    "name": "New Windsor Medical Centre",
    "facility_type": "gp",
    "latitude": -36.9111826,
    "longitude": 174.7167771,
    "osm_id": 4956181018,
    "source": "osm"
  },
  {
    "name": "Westend Health Centre",
    "facility_type": "gp",
    "latitude": -37.7966033,
    "longitude": 175.2468805,
    "osm_id": 4971720128,
    "source": "osm"
  },
  {
    "name": "Sports Med Physiotherapy",
    "facility_type": "gp",
    "latitude": -37.7773802,
    "longitude": 175.2690933,
    "osm_id": 4973224796,
    "source": "osm"
  },
  {
    "name": "Eden-Epsom Medical Centre",
    "facility_type": "gp",
    "latitude": -36.8944015,
    "longitude": 174.7739593,
    "osm_id": 4974630940,
    "source": "osm"
  },
  {
    "name": "Epsom Pro Health",
    "facility_type": "gp",
    "latitude": -36.8821688,
    "longitude": 174.7755444,
    "osm_id": 4974630961,
    "source": "osm"
  },
  {
    "name": "Headway House",
    "facility_type": "gp",
    "latitude": -36.882713,
    "longitude": 174.7754115,
    "osm_id": 4974630962,
    "source": "osm"
  },
  {
    "name": "Unknown",
    "facility_type": "gp",
    "latitude": -36.9261097,
    "longitude": 174.7494082,
    "osm_id": 4974631014,
    "source": "osm"
  },
  {
    "name": "Remuera Village Medical Centre",
    "facility_type": "gp",
    "latitude": -36.8803245,
    "longitude": 174.8127511,
    "osm_id": 4989734840,
    "source": "osm"
  },
  {
    "name": "OPSM",
    "facility_type": "gp",
    "latitude": -36.8507667,
    "longitude": 174.8584029,
    "osm_id": 4989734901,
    "source": "osm"
  },
  {
    "name": "Saint Heliers Medical",
    "facility_type": "gp",
    "latitude": -36.8505601,
    "longitude": 174.8586419,
    "osm_id": 4989734904,
    "source": "osm"
  },
  {
    "name": "My Doctor",
    "facility_type": "gp",
    "latitude": -36.8533258,
    "longitude": 174.7863643,
    "osm_id": 4994486197,
    "source": "osm"
  },
  {
    "name": "Te Puna Hauora Health Clinic",
    "facility_type": "hospital",
    "latitude": -36.7979477,
    "longitude": 174.7006253,
    "osm_id": 4998200752,
    "source": "osm"
  },
  {
    "name": "Belmont Medical Centre",
    "facility_type": "gp",
    "latitude": -36.8083188,
    "longitude": 174.7904157,
    "osm_id": 4999284831,
    "source": "osm"
  },
  {
    "name": "Roselands Doctors",
    "facility_type": "gp",
    "latitude": -37.0596556,
    "longitude": 174.9417393,
    "osm_id": 5013799353,
    "source": "osm"
  },
  {
    "name": "Southern Physiotherapy Ltd.",
    "facility_type": "gp",
    "latitude": -37.0706985,
    "longitude": 174.9428286,
    "osm_id": 5013799405,
    "source": "osm"
  },
  {
    "name": "Point Chevalier Medical and Surgical Centre",
    "facility_type": "gp",
    "latitude": -36.8699896,
    "longitude": 174.7109331,
    "osm_id": 5015955247,
    "source": "osm"
  },
  {
    "name": "Viaduct Medical Centre",
    "facility_type": "gp",
    "latitude": -36.843869,
    "longitude": 174.7602185,
    "osm_id": 5021399238,
    "source": "osm"
  },
  {
    "name": "Otahuhu Health Centre",
    "facility_type": "gp",
    "latitude": -36.9468934,
    "longitude": 174.8452316,
    "osm_id": 5029943857,
    "source": "osm"
  },
  {
    "name": "Otahuhu Family Medical Centre",
    "facility_type": "gp",
    "latitude": -36.9469261,
    "longitude": 174.8452434,
    "osm_id": 5029943858,
    "source": "osm"
  },
  {
    "name": "One Care Family Medical Centre",
    "facility_type": "gp",
    "latitude": -36.9705507,
    "longitude": 174.8618217,
    "osm_id": 5030003409,
    "source": "osm"
  },
  {
    "name": "Unknown",
    "facility_type": "gp",
    "latitude": -36.8986798,
    "longitude": 174.8031791,
    "osm_id": 5031773052,
    "source": "osm"
  },
  {
    "name": "Greenlane - Penrose Optometrist",
    "facility_type": "gp",
    "latitude": -36.8993842,
    "longitude": 174.8035248,
    "osm_id": 5031773078,
    "source": "osm"
  },
  {
    "name": "Mount Smart Medical Centre",
    "facility_type": "gp",
    "latitude": -36.9149418,
    "longitude": 174.8013661,
    "osm_id": 5031773091,
    "source": "osm"
  },
  {
    "name": "Dilworth Hearing",
    "facility_type": "gp",
    "latitude": -36.8812948,
    "longitude": 174.7721634,
    "osm_id": 5031773327,
    "source": "osm"
  },
  {
    "name": "Onehunga Medical Practice",
    "facility_type": "gp",
    "latitude": -36.9240917,
    "longitude": 174.7856817,
    "osm_id": 5031826960,
    "source": "osm"
  },
  {
    "name": "Onehunga Family Medical Centre",
    "facility_type": "gp",
    "latitude": -36.9236164,
    "longitude": 174.7856204,
    "osm_id": 5031826961,
    "source": "osm"
  },
  {
    "name": "Royal Oak Medical Centre",
    "facility_type": "gp",
    "latitude": -36.9108966,
    "longitude": 174.7756189,
    "osm_id": 5031826997,
    "source": "osm"
  },
  {
    "name": "Papamoa Beach Family Practice",
    "facility_type": "gp",
    "latitude": -37.7184439,
    "longitude": 176.3424373,
    "osm_id": 5040835667,
    "source": "osm"
  },
  {
    "name": "Titirangi Osteopathic Clinic",
    "facility_type": "gp",
    "latitude": -36.938076,
    "longitude": 174.6574073,
    "osm_id": 5047019836,
    "source": "osm"
  },
  {
    "name": "Viva Physiotherapy",
    "facility_type": "gp",
    "latitude": -36.926492,
    "longitude": 174.6704516,
    "osm_id": 5047019853,
    "source": "osm"
  },
  {
    "name": "Forrest Hill Family Medical Centre",
    "facility_type": "gp",
    "latitude": -36.7605001,
    "longitude": 174.7467196,
    "osm_id": 5047602362,
    "source": "osm"
  },
  {
    "name": "Cashmere Health",
    "facility_type": "gp",
    "latitude": -43.5671753,
    "longitude": 172.6354335,
    "osm_id": 5047751690,
    "source": "osm"
  },
  {
    "name": "Rathbone Clinic",
    "facility_type": "gp",
    "latitude": -35.7238155,
    "longitude": 174.3212543,
    "osm_id": 5052413979,
    "source": "osm"
  },
  {
    "name": "Kidz First Community Health",
    "facility_type": "gp",
    "latitude": -37.0335524,
    "longitude": 174.8683547,
    "osm_id": 5053006574,
    "source": "osm"
  },
  {
    "name": "Fellbrook Medical Centre",
    "facility_type": "gp",
    "latitude": -37.0204779,
    "longitude": 174.8645842,
    "osm_id": 5053006624,
    "source": "osm"
  },
  {
    "name": "Awanui Labs",
    "facility_type": "gp",
    "latitude": -37.0208805,
    "longitude": 174.8952846,
    "osm_id": 5053098754,
    "source": "osm"
  },
  {
    "name": "Torbay Medical",
    "facility_type": "gp",
    "latitude": -36.6955224,
    "longitude": 174.7513095,
    "osm_id": 5057215362,
    "source": "osm"
  },
  {
    "name": "New Hope Chinese Medical Clinic",
    "facility_type": "gp",
    "latitude": -36.7142183,
    "longitude": 174.746767,
    "osm_id": 5057312369,
    "source": "osm"
  },
  {
    "name": "OPSM",
    "facility_type": "gp",
    "latitude": -36.7158744,
    "longitude": 174.7480119,
    "osm_id": 5057312401,
    "source": "osm"
  },
  {
    "name": "Bay Audiology",
    "facility_type": "gp",
    "latitude": -36.7156958,
    "longitude": 174.7464606,
    "osm_id": 5057312523,
    "source": "osm"
  },
  {
    "name": "Awanui Labs",
    "facility_type": "gp",
    "latitude": -36.7159634,
    "longitude": 174.7468247,
    "osm_id": 5057312526,
    "source": "osm"
  },
  {
    "name": "Browns Bay Medical Centre",
    "facility_type": "gp",
    "latitude": -36.716966,
    "longitude": 174.7461012,
    "osm_id": 5057312536,
    "source": "osm"
  },
  {
    "name": "Chiropractor Centre",
    "facility_type": "gp",
    "latitude": -36.7163796,
    "longitude": 174.743421,
    "osm_id": 5057312553,
    "source": "osm"
  },
  {
    "name": "Local Doctors Glen Innes",
    "facility_type": "gp",
    "latitude": -36.87872,
    "longitude": 174.8563573,
    "osm_id": 5077967165,
    "source": "osm"
  },
  {
    "name": "Avondale Family Health Centre",
    "facility_type": "gp",
    "latitude": -36.8915768,
    "longitude": 174.6963968,
    "osm_id": 5079816240,
    "source": "osm"
  },
  {
    "name": "Saint Lukes Foot Clinic",
    "facility_type": "gp",
    "latitude": -36.8843062,
    "longitude": 174.7331125,
    "osm_id": 5080681468,
    "source": "osm"
  },
  {
    "name": "Chiropractor",
    "facility_type": "gp",
    "latitude": -37.765658,
    "longitude": 175.2553093,
    "osm_id": 5097403043,
    "source": "osm"
  },
  {
    "name": "Lifestyle Physiotherapy",
    "facility_type": "gp",
    "latitude": -37.7574019,
    "longitude": 175.2472604,
    "osm_id": 5102045688,
    "source": "osm"
  },
  {
    "name": "Hamilton Radiology",
    "facility_type": "gp",
    "latitude": -37.7575662,
    "longitude": 175.2468762,
    "osm_id": 5102045693,
    "source": "osm"
  },
  {
    "name": "Tui Medical",
    "facility_type": "gp",
    "latitude": -37.7576818,
    "longitude": 175.2466455,
    "osm_id": 5102045694,
    "source": "osm"
  },
  {
    "name": "T L Care Medical",
    "facility_type": "gp",
    "latitude": -36.8622294,
    "longitude": 174.6485719,
    "osm_id": 5116574431,
    "source": "osm"
  },
  {
    "name": "Peninsula Physiotherapy",
    "facility_type": "gp",
    "latitude": -36.8547074,
    "longitude": 174.6506245,
    "osm_id": 5116574473,
    "source": "osm"
  },
  {
    "name": "Awanui Labs",
    "facility_type": "gp",
    "latitude": -36.8546886,
    "longitude": 174.6507284,
    "osm_id": 5116574474,
    "source": "osm"
  },
  {
    "name": "Visique",
    "facility_type": "gp",
    "latitude": -36.9104832,
    "longitude": 174.6511455,
    "osm_id": 5141828299,
    "source": "osm"
  },
  {
    "name": "Advanced Health Chiropractor",
    "facility_type": "gp",
    "latitude": -36.9117158,
    "longitude": 174.6542488,
    "osm_id": 5141828317,
    "source": "osm"
  },
  {
    "name": "Epsom Eye Care",
    "facility_type": "gp",
    "latitude": -36.88535,
    "longitude": 174.7757737,
    "osm_id": 5151111393,
    "source": "osm"
  },
  {
    "name": "The Doctors",
    "facility_type": "gp",
    "latitude": -36.9568429,
    "longitude": 174.8339702,
    "osm_id": 5151218063,
    "source": "osm"
  },
  {
    "name": "Mangere Family Doctors",
    "facility_type": "gp",
    "latitude": -36.9567593,
    "longitude": 174.833824,
    "osm_id": 5151218116,
    "source": "osm"
  },
  {
    "name": "Mangere East Family Doctors",
    "facility_type": "gp",
    "latitude": -36.9660929,
    "longitude": 174.8240239,
    "osm_id": 5151218401,
    "source": "osm"
  },
  {
    "name": "Mangere Medical Centre",
    "facility_type": "gp",
    "latitude": -36.9662853,
    "longitude": 174.8248427,
    "osm_id": 5151218417,
    "source": "osm"
  },
  {
    "name": "Orewa House",
    "facility_type": "gp",
    "latitude": -36.5745795,
    "longitude": 174.6892896,
    "osm_id": 5153036394,
    "source": "osm"
  },
  {
    "name": "The Doctors",
    "facility_type": "gp",
    "latitude": -36.9233402,
    "longitude": 174.783643,
    "osm_id": 5166974050,
    "source": "osm"
  },
  {
    "name": "The Practice",
    "facility_type": "gp",
    "latitude": -36.9092098,
    "longitude": 174.8836528,
    "osm_id": 5177815964,
    "source": "osm"
  },
  {
    "name": "Te Kauwhata Health Centre",
    "facility_type": "gp",
    "latitude": -37.4038966,
    "longitude": 175.1434636,
    "osm_id": 5179412889,
    "source": "osm"
  },
  {
    "name": "Insudang Oriental Medical Clinic",
    "facility_type": "gp",
    "latitude": -36.7414457,
    "longitude": 174.7121792,
    "osm_id": 5211675380,
    "source": "osm"
  },
  {
    "name": "Bay Audiology",
    "facility_type": "gp",
    "latitude": -36.7256542,
    "longitude": 174.6967236,
    "osm_id": 5211675835,
    "source": "osm"
  },
  {
    "name": "Onerahi Foot Clinic",
    "facility_type": "gp",
    "latitude": -35.7551151,
    "longitude": 174.367795,
    "osm_id": 5229534229,
    "source": "osm"
  },
  {
    "name": "Koru Clinic",
    "facility_type": "gp",
    "latitude": -36.9501192,
    "longitude": 174.6243193,
    "osm_id": 5235751697,
    "source": "osm"
  },
  {
    "name": "Local Doctors Glendene",
    "facility_type": "gp",
    "latitude": -36.8869139,
    "longitude": 174.6447538,
    "osm_id": 5237396080,
    "source": "osm"
  },
  {
    "name": "Bay Audiology",
    "facility_type": "gp",
    "latitude": -38.2184207,
    "longitude": 175.8710002,
    "osm_id": 5250025604,
    "source": "osm"
  },
  {
    "name": "Tokoroa Medical Centre",
    "facility_type": "gp",
    "latitude": -38.2309016,
    "longitude": 175.8601405,
    "osm_id": 5253738134,
    "source": "osm"
  },
  {
    "name": "Tokoroa Family Health",
    "facility_type": "gp",
    "latitude": -38.2310687,
    "longitude": 175.8598101,
    "osm_id": 5253738137,
    "source": "osm"
  },
  {
    "name": "Bryndwr Medical Rooms",
    "facility_type": "gp",
    "latitude": -43.5090697,
    "longitude": 172.5904582,
    "osm_id": 5256824762,
    "source": "osm"
  },
  {
    "name": "Kendal Medical Centre",
    "facility_type": "gp",
    "latitude": -43.4978328,
    "longitude": 172.5727186,
    "osm_id": 5256867213,
    "source": "osm"
  },
  {
    "name": "Burnside Medical Centre",
    "facility_type": "gp",
    "latitude": -43.4964601,
    "longitude": 172.5788337,
    "osm_id": 5256868875,
    "source": "osm"
  },
  {
    "name": "Unknown",
    "facility_type": "gp",
    "latitude": -43.5455576,
    "longitude": 172.5258268,
    "osm_id": 5260982189,
    "source": "osm"
  },
  {
    "name": "Conifer Gardens Medical Centre",
    "facility_type": "gp",
    "latitude": -37.0412366,
    "longitude": 174.9170516,
    "osm_id": 5291156303,
    "source": "osm"
  },
  {
    "name": "Awanui Labs",
    "facility_type": "gp",
    "latitude": -37.0482596,
    "longitude": 174.9327473,
    "osm_id": 5291156680,
    "source": "osm"
  },
  {
    "name": "Local Doctors Takanini",
    "facility_type": "gp",
    "latitude": -37.0484854,
    "longitude": 174.9329659,
    "osm_id": 5291156683,
    "source": "osm"
  },
  {
    "name": "Te Aroha Noa Medical Centre",
    "facility_type": "gp",
    "latitude": -35.7234814,
    "longitude": 174.3194273,
    "osm_id": 5292950975,
    "source": "osm"
  },
  {
    "name": "Conifer Grove Accupuncture and Therapies",
    "facility_type": "gp",
    "latitude": -37.0467188,
    "longitude": 174.9103052,
    "osm_id": 5304275253,
    "source": "osm"
  },
  {
    "name": "Hobsonville Optometrists",
    "facility_type": "gp",
    "latitude": -36.797964,
    "longitude": 174.6493611,
    "osm_id": 5304364179,
    "source": "osm"
  },
  {
    "name": "Otorohanga Medical Centre",
    "facility_type": "gp",
    "latitude": -38.184024,
    "longitude": 175.2097864,
    "osm_id": 5309535326,
    "source": "osm"
  },
  {
    "name": "Vincent Street Family Doctors",
    "facility_type": "gp",
    "latitude": -36.9025605,
    "longitude": 174.9257125,
    "osm_id": 5314339218,
    "source": "osm"
  },
  {
    "name": "Peak Pilates and Physiotherapy",
    "facility_type": "gp",
    "latitude": -36.9256094,
    "longitude": 174.9125388,
    "osm_id": 5314339351,
    "source": "osm"
  },
  {
    "name": "Evolve Physiotherapy",
    "facility_type": "gp",
    "latitude": -36.9235309,
    "longitude": 174.9125639,
    "osm_id": 5314339358,
    "source": "osm"
  },
  {
    "name": "The Fono",
    "facility_type": "gp",
    "latitude": -36.908233,
    "longitude": 174.7015713,
    "osm_id": 5317501856,
    "source": "osm"
  },
  {
    "name": "Parua Bay Medical Centre",
    "facility_type": "gp",
    "latitude": -35.7693597,
    "longitude": 174.4789324,
    "osm_id": 5319707064,
    "source": "osm"
  },
  {
    "name": "Beachlands Medical Centre",
    "facility_type": "gp",
    "latitude": -36.8894994,
    "longitude": 175.0106141,
    "osm_id": 5324657321,
    "source": "osm"
  },
  {
    "name": "South Seas Medical Centre",
    "facility_type": "gp",
    "latitude": -36.9614166,
    "longitude": 174.8728073,
    "osm_id": 5340052841,
    "source": "osm"
  },
  {
    "name": "The Skin Science Clinic",
    "facility_type": "gp",
    "latitude": -36.9252427,
    "longitude": 174.9207544,
    "osm_id": 5340053020,
    "source": "osm"
  },
  {
    "name": "Awanui Labs",
    "facility_type": "gp",
    "latitude": -36.8894644,
    "longitude": 175.0104723,
    "osm_id": 5369757772,
    "source": "osm"
  },
  {
    "name": "New Zealand Blood Service Donor Centre",
    "facility_type": "gp",
    "latitude": -37.8078132,
    "longitude": 175.2807122,
    "osm_id": 5376759805,
    "source": "osm"
  },
  {
    "name": "Greenwood Health Centre",
    "facility_type": "gp",
    "latitude": -41.109784,
    "longitude": 173.0123949,
    "osm_id": 5397028921,
    "source": "osm"
  },
  {
    "name": "Four Kauri Family Medical Centre",
    "facility_type": "gp",
    "latitude": -36.8835355,
    "longitude": 174.7166736,
    "osm_id": 5415641733,
    "source": "osm"
  },
  {
    "name": "Assist Healthcare",
    "facility_type": "gp",
    "latitude": -36.8843738,
    "longitude": 174.7163659,
    "osm_id": 5415642976,
    "source": "osm"
  },
  {
    "name": "Saint Lukes Osteopath",
    "facility_type": "gp",
    "latitude": -36.8843556,
    "longitude": 174.7335025,
    "osm_id": 5417708822,
    "source": "osm"
  },
  {
    "name": "Endocopy Auckland",
    "facility_type": "gp",
    "latitude": -36.8801259,
    "longitude": 174.7726737,
    "osm_id": 5421579189,
    "source": "osm"
  },
  {
    "name": "Richmond Road Medical Centre",
    "facility_type": "gp",
    "latitude": -36.858867,
    "longitude": 174.7316255,
    "osm_id": 5421971728,
    "source": "osm"
  },
  {
    "name": "Cambridge Physiotherapy and Accupuncture Clinic",
    "facility_type": "gp",
    "latitude": -37.8947514,
    "longitude": 175.4711746,
    "osm_id": 5426327181,
    "source": "osm"
  },
  {
    "name": "Chirolink",
    "facility_type": "gp",
    "latitude": -36.8848379,
    "longitude": 174.8045277,
    "osm_id": 5455539816,
    "source": "osm"
  },
  {
    "name": "Dr Downey Dermatologist",
    "facility_type": "gp",
    "latitude": -36.7465663,
    "longitude": 174.7391608,
    "osm_id": 5487617701,
    "source": "osm"
  },
  {
    "name": "Invercargill After Hours Doctors",
    "facility_type": "gp",
    "latitude": -46.4109085,
    "longitude": 168.3545954,
    "osm_id": 5495435143,
    "source": "osm"
  },
  {
    "name": "Skintel",
    "facility_type": "gp",
    "latitude": -36.7448394,
    "longitude": 174.7346919,
    "osm_id": 5513567695,
    "source": "osm"
  },
  {
    "name": "Tawa Medical Centre",
    "facility_type": "gp",
    "latitude": -41.1693817,
    "longitude": 174.8244223,
    "osm_id": 5546498971,
    "source": "osm"
  },
  {
    "name": "Bay Radiology",
    "facility_type": "hospital",
    "latitude": -37.742462,
    "longitude": 176.1370835,
    "osm_id": 5608333692,
    "source": "osm"
  },
  {
    "name": "Doctors @ 42",
    "facility_type": "gp",
    "latitude": -37.5562004,
    "longitude": 175.1588956,
    "osm_id": 5610560303,
    "source": "osm"
  },
  {
    "name": "Titahi Bay Surgery",
    "facility_type": "gp",
    "latitude": -41.1088642,
    "longitude": 174.8400473,
    "osm_id": 5612809424,
    "source": "osm"
  },
  {
    "name": "Bethlehem Family Doctor",
    "facility_type": "gp",
    "latitude": -37.7042725,
    "longitude": 176.1129635,
    "osm_id": 5612832628,
    "source": "osm"
  },
  {
    "name": "Te K\u0101ika Wellbeing Hub",
    "facility_type": "gp",
    "latitude": -45.8971038,
    "longitude": 170.4795075,
    "osm_id": 5629839757,
    "source": "osm"
  },
  {
    "name": "Ear Health",
    "facility_type": "gp",
    "latitude": -45.8981774,
    "longitude": 170.4869407,
    "osm_id": 5629840513,
    "source": "osm"
  },
  {
    "name": "The Nelson Clinic",
    "facility_type": "gp",
    "latitude": -41.2820909,
    "longitude": 173.2780903,
    "osm_id": 5631178122,
    "source": "osm"
  },
  {
    "name": "South Hill Medical",
    "facility_type": "gp",
    "latitude": -45.1061865,
    "longitude": 170.9650464,
    "osm_id": 5631329502,
    "source": "osm"
  },
  {
    "name": "The Sports and Pain Clinic",
    "facility_type": "gp",
    "latitude": -41.2863099,
    "longitude": 174.7760121,
    "osm_id": 5638922969,
    "source": "osm"
  },
  {
    "name": "Pyes Pa Doctors",
    "facility_type": "gp",
    "latitude": -37.7514726,
    "longitude": 176.1045354,
    "osm_id": 5646863792,
    "source": "osm"
  },
  {
    "name": "Waikari Health Centre",
    "facility_type": "gp",
    "latitude": -42.9662445,
    "longitude": 172.6834234,
    "osm_id": 5673747309,
    "source": "osm"
  },
  {
    "name": "Unknown",
    "facility_type": "gp",
    "latitude": -37.8097127,
    "longitude": 175.2777481,
    "osm_id": 5806601407,
    "source": "osm"
  },
  {
    "name": "Physiotherapy and Pilates",
    "facility_type": "gp",
    "latitude": -37.7426395,
    "longitude": 176.1236997,
    "osm_id": 5809596925,
    "source": "osm"
  },
  {
    "name": "Family Doctors",
    "facility_type": "gp",
    "latitude": -37.7429577,
    "longitude": 176.1236326,
    "osm_id": 5809596929,
    "source": "osm"
  },
  {
    "name": "Kingsland Family Health Centre",
    "facility_type": "gp",
    "latitude": -36.8721421,
    "longitude": 174.7439633,
    "osm_id": 5812054517,
    "source": "osm"
  },
  {
    "name": "Owhata Medical Centre",
    "facility_type": "gp",
    "latitude": -38.1308225,
    "longitude": 176.299913,
    "osm_id": 5862527695,
    "source": "osm"
  },
  {
    "name": "Cashmere Health",
    "facility_type": "gp",
    "latitude": -43.5667553,
    "longitude": 172.6468775,
    "osm_id": 5862744823,
    "source": "osm"
  },
  {
    "name": "The Doctors Quaymed Wynyard",
    "facility_type": "gp",
    "latitude": -36.8445612,
    "longitude": 174.7550722,
    "osm_id": 5872457094,
    "source": "osm"
  },
  {
    "name": "North Shore Sexual Health Service",
    "facility_type": "gp",
    "latitude": -36.7834502,
    "longitude": 174.7208651,
    "osm_id": 5901381501,
    "source": "osm"
  },
  {
    "name": "Kelston Mall Medical Centre",
    "facility_type": "gp",
    "latitude": -36.9093733,
    "longitude": 174.6643125,
    "osm_id": 5942223442,
    "source": "osm"
  },
  {
    "name": "Totara Health Services - Medical Centre",
    "facility_type": "gp",
    "latitude": -36.9087671,
    "longitude": 174.6838675,
    "osm_id": 5942223476,
    "source": "osm"
  },
  {
    "name": "Newmarket Medical Centre",
    "facility_type": "gp",
    "latitude": -36.8689843,
    "longitude": 174.777642,
    "osm_id": 5942223588,
    "source": "osm"
  },
  {
    "name": "Dilworth Hearing",
    "facility_type": "gp",
    "latitude": -41.2889,
    "longitude": 174.7617815,
    "osm_id": 5982665461,
    "source": "osm"
  },
  {
    "name": "Wiri Family Doctors",
    "facility_type": "gp",
    "latitude": -37.0004192,
    "longitude": 174.889335,
    "osm_id": 6021137058,
    "source": "osm"
  },
  {
    "name": "Unknown",
    "facility_type": "gp",
    "latitude": -36.872645,
    "longitude": 174.7518918,
    "osm_id": 6082243818,
    "source": "osm"
  },
  {
    "name": "Clive Health Medical Centre",
    "facility_type": "gp",
    "latitude": -39.5841813,
    "longitude": 176.9157677,
    "osm_id": 6150886234,
    "source": "osm"
  },
  {
    "name": "Hamilton Eye Clinic",
    "facility_type": "gp",
    "latitude": -37.7928519,
    "longitude": 175.2895502,
    "osm_id": 6377452092,
    "source": "osm"
  },
  {
    "name": "Albany House",
    "facility_type": "gp",
    "latitude": -45.8661123,
    "longitude": 170.5088072,
    "osm_id": 6405269601,
    "source": "osm"
  },
  {
    "name": "Community Support Medical Centre",
    "facility_type": "gp",
    "latitude": -45.8663519,
    "longitude": 170.50779,
    "osm_id": 6405797136,
    "source": "osm"
  },
  {
    "name": "Dunedin North Medical Centre",
    "facility_type": "gp",
    "latitude": -45.8624407,
    "longitude": 170.5110916,
    "osm_id": 6405797163,
    "source": "osm"
  },
  {
    "name": "Catlins Medical Centre",
    "facility_type": "gp",
    "latitude": -46.4503398,
    "longitude": 169.6647687,
    "osm_id": 6426892485,
    "source": "osm"
  },
  {
    "name": "Greenwood Medical Centre",
    "facility_type": "gp",
    "latitude": -36.9060556,
    "longitude": 174.7743857,
    "osm_id": 6447492690,
    "source": "osm"
  },
  {
    "name": "Piritahi Hau Ora",
    "facility_type": "gp",
    "latitude": -36.7899355,
    "longitude": 175.0083087,
    "osm_id": 6450738975,
    "source": "osm"
  },
  {
    "name": "ABI Rehabilitation",
    "facility_type": "gp",
    "latitude": -36.8716909,
    "longitude": 174.6034467,
    "osm_id": 6517773172,
    "source": "osm"
  },
  {
    "name": "Te Atatu South Medical Centre",
    "facility_type": "gp",
    "latitude": -36.8621339,
    "longitude": 174.6495818,
    "osm_id": 6550726552,
    "source": "osm"
  },
  {
    "name": "Linden Surgery",
    "facility_type": "gp",
    "latitude": -41.1583012,
    "longitude": 174.8329482,
    "osm_id": 6685891789,
    "source": "osm"
  },
  {
    "name": "Kelburn GPs",
    "facility_type": "gp",
    "latitude": -41.2858259,
    "longitude": 174.7676474,
    "osm_id": 6809997387,
    "source": "osm"
  },
  {
    "name": "City Medical Gisborne",
    "facility_type": "gp",
    "latitude": -38.6646783,
    "longitude": 178.0227007,
    "osm_id": 6816252544,
    "source": "osm"
  },
  {
    "name": "Spyne Doctors",
    "facility_type": "gp",
    "latitude": -36.843122,
    "longitude": 174.6532267,
    "osm_id": 6923678897,
    "source": "osm"
  },
  {
    "name": "Waitaha Health Centre",
    "facility_type": "gp",
    "latitude": -37.7850305,
    "longitude": 176.3291505,
    "osm_id": 6942107087,
    "source": "osm"
  },
  {
    "name": "Te Puke Physiotherapy",
    "facility_type": "gp",
    "latitude": -37.7848604,
    "longitude": 176.3258115,
    "osm_id": 6942107096,
    "source": "osm"
  },
  {
    "name": "Church Street Surgery",
    "facility_type": "gp",
    "latitude": -38.0069117,
    "longitude": 177.2847167,
    "osm_id": 6942419772,
    "source": "osm"
  },
  {
    "name": "Three Kings Family medical Centre",
    "facility_type": "gp",
    "latitude": -36.9094645,
    "longitude": 174.7579743,
    "osm_id": 6986316323,
    "source": "osm"
  },
  {
    "name": "White cross doctors",
    "facility_type": "hospital",
    "latitude": -35.7267743,
    "longitude": 174.326356,
    "osm_id": 7113172786,
    "source": "osm"
  },
  {
    "name": "She long Chinese Medicine Clinic",
    "facility_type": "gp",
    "latitude": -36.8982151,
    "longitude": 174.6972094,
    "osm_id": 7168855435,
    "source": "osm"
  },
  {
    "name": "Pegasus Primary Mental Health Services",
    "facility_type": "gp",
    "latitude": -43.5216145,
    "longitude": 172.6422142,
    "osm_id": 7272876560,
    "source": "osm"
  },
  {
    "name": "Waipu Medical Centre",
    "facility_type": "gp",
    "latitude": -35.9836787,
    "longitude": 174.4468805,
    "osm_id": 7393813185,
    "source": "osm"
  },
  {
    "name": "Saint Margaret's Hospital",
    "facility_type": "hospital",
    "latitude": -36.8359151,
    "longitude": 174.6577853,
    "osm_id": 7633934475,
    "source": "osm"
  },
  {
    "name": "Te Whare Ra Uta",
    "facility_type": "gp",
    "latitude": -41.1472,
    "longitude": 174.835,
    "osm_id": 7642775684,
    "source": "osm"
  },
  {
    "name": "Oakura Medical Centre",
    "facility_type": "gp",
    "latitude": -39.1169958,
    "longitude": 173.9569294,
    "osm_id": 7657975000,
    "source": "osm"
  },
  {
    "name": "Etu Pasifika",
    "facility_type": "gp",
    "latitude": -43.5384261,
    "longitude": 172.6302885,
    "osm_id": 7672948123,
    "source": "osm"
  },
  {
    "name": "Skin center",
    "facility_type": "gp",
    "latitude": -41.2724946,
    "longitude": 173.2901176,
    "osm_id": 7685521285,
    "source": "osm"
  },
  {
    "name": "Christchurch Public Hospital",
    "facility_type": "hospital",
    "latitude": -43.5343328,
    "longitude": 172.6254892,
    "osm_id": 7700945429,
    "source": "osm"
  },
  {
    "name": "Unknown",
    "facility_type": "gp",
    "latitude": -41.1695357,
    "longitude": 174.8246026,
    "osm_id": 7802585786,
    "source": "osm"
  },
  {
    "name": "Awanui Labs",
    "facility_type": "gp",
    "latitude": -36.993809,
    "longitude": 174.8821623,
    "osm_id": 7827720323,
    "source": "osm"
  },
  {
    "name": "Unknown",
    "facility_type": "gp",
    "latitude": -36.8584985,
    "longitude": 174.729637,
    "osm_id": 7833855965,
    "source": "osm"
  },
  {
    "name": "The Doctors Total Health",
    "facility_type": "gp",
    "latitude": -37.9521706,
    "longitude": 176.9929989,
    "osm_id": 7834023301,
    "source": "osm"
  },
  {
    "name": "Muritai Health Centre",
    "facility_type": "gp",
    "latitude": -41.2904794,
    "longitude": 174.8985883,
    "osm_id": 7841556378,
    "source": "osm"
  },
  {
    "name": "Bay of Islands Hospital",
    "facility_type": "hospital",
    "latitude": -35.3862809,
    "longitude": 174.0693937,
    "osm_id": 8076406481,
    "source": "osm"
  },
  {
    "name": "Kaitaia Hospital",
    "facility_type": "hospital",
    "latitude": -35.1188767,
    "longitude": 173.2614801,
    "osm_id": 8076430787,
    "source": "osm"
  },
  {
    "name": "Orewa Chiropractic",
    "facility_type": "gp",
    "latitude": -36.5854755,
    "longitude": 174.6930322,
    "osm_id": 8150212661,
    "source": "osm"
  },
  {
    "name": "Awanui Labs",
    "facility_type": "gp",
    "latitude": -36.8908028,
    "longitude": 174.746036,
    "osm_id": 8169262136,
    "source": "osm"
  },
  {
    "name": "Health Te Aroha",
    "facility_type": "gp",
    "latitude": -37.5411914,
    "longitude": 175.7120437,
    "osm_id": 8203859462,
    "source": "osm"
  },
  {
    "name": "Physio Connect",
    "facility_type": "gp",
    "latitude": -36.8697954,
    "longitude": 174.7110382,
    "osm_id": 8226178274,
    "source": "osm"
  },